country,city,village,number,name,address,administration,latitude,longitude,grade,type2,type,exec,diaper
63000,63000010,民有里,A010001316,中山國中地下停車場B1親子,臺北市松山區民有里民權東路三段140巷15號,縣市政府,25.0605,121.546741,特優級,交通,親子廁所,臺北市停車管理工程處,0
63000,63000010,民有里,A010001315,中山國中地下停車場B1女,臺北市松山區民有里民權東路三段140巷15號,縣市政府,25.0605,121.546741,特優級,交通,女廁所,臺北市停車管理工程處,0
63000,63000010,民有里,A010001314,中山國中地下停車場B1男,臺北市松山區民有里民權東路三段140巷15號,縣市政府,25.0605,121.546741,特優級,交通,男廁所,臺北市停車管理工程處,0
63000,63000100,安湖里,A100001478,東湖立體停車場B1無障礙,臺北市內湖區安湖里東湖路3號,縣市政府,25.069693,121.61224,特優級,社福機構、集會場所,無障礙廁所,正好停股份有限公司東湖立體停車場,0
63000,63000100,安湖里,A100001477,東湖立體停車場B1女,臺北市內湖區安湖里東湖路3號,縣市政府,25.069693,121.61224,特優級,社福機構、集會場所,女廁所,正好停股份有限公司東湖立體停車場,0
63000,63000100,安湖里,A100001476,東湖立體停車場B1男,臺北市內湖區安湖里東湖路3號,縣市政府,25.069693,121.61224,特優級,社福機構、集會場所,男廁所,正好停股份有限公司東湖立體停車場,0
63000,63000100,安湖里,A100001475,東湖立體停車場3F無障礙,臺北市內湖區安湖里東湖路3號,縣市政府,25.069693,121.61224,特優級,社福機構、集會場所,無障礙廁所,正好停股份有限公司東湖立體停車場,0
63000,63000100,安湖里,A100001474,東湖立體停車場3F女,臺北市內湖區安湖里東湖路3號,縣市政府,25.069693,121.61224,特優級,交通,女廁所,正好停股份有限公司東湖立體停車場,0
63000,63000010,精忠里,A010001288,中油松山機場加油站無障礙,臺北市松山區精忠里敦化北路342之1號,勞動部,25.062609,121.550583,特優級,商業營業場所,無障礙廁所,台灣中油股份有限公司,0
63000,63000010,精忠里,A010001287,中油松山機場加油站女廁,臺北市松山區精忠里敦化北路342之1號,經濟部,25.062609,121.550583,特優級,商業營業場所,女廁所,台灣中油股份有限公司,0
63000,63000110,福林里,A110002002,西歐士林加油站無障礙,"臺北市士林區福林里中山北路五段570號 ",西歐加油站股份有限公司,25.095592,121.528262,特優級,商業營業場所,無障礙廁所,西歐加油站股份有限公司,0
63000,63000110,福林里,A110002001,士林官邸5號親子,臺北市士林區福林里福林路60號,臺北市政府工務局公園路燈工程管理處,25.09406197,121.5300965,特優級,公園,親子廁所,臺北市政府工務局公園路燈工程管理處,0
63000,63000030,通化里,A030001946,台灣中油富陽街加油站無障礙,臺北市大安區通化里富陽街129號,經濟部,25.032931,121.555457,特優級,商業營業場所,無障礙廁所,台灣中油股份有限公司,0
63000,63000030,通化里,A030001945,台灣中油富陽街加油站女廁,臺北市大安區通化里富陽街129號,經濟部,25.032931,121.555457,特優級,商業營業場所,女廁所,台灣中油股份有限公司,0
63000,63000030,通化里,A030001944,台灣中油信義路加油站無障礙,臺北市大安區通化里信義路四段374號,經濟部,25.032931,121.555457,特優級,商業營業場所,女廁所,台灣中油股份有限公司,0
63000,63000030,永康里,A030001934,台灣中油金山南路加油站女廁,臺北市大安區永康里金山南路二段77號,經濟部,25.03148,121.527198,特優級,商業營業場所,女廁所,台灣中油股份有限公司,0
63000,63000090,合成里,A090000742,捷運昆陽站無障礙親子,臺北市南港區合成里忠孝東路六段451號,縣市政府,25.050611,121.593796,特優級,交通,無障礙廁所,臺北大眾捷運股份有限公司,0
63000,63000110,蘭雅里,A110001966,全家便利商店臺北市天強店男女,"臺北市士林區蘭雅里中山北路六段238號 ",全家便利商店股份有限公司,25.108951,121.525447,特優級,商業營業場所,混合廁所,全家便利商店股份有限公司,0
63000,63000070,福星里,A070000928,洛陽停車場7樓07號無障礙廁所,臺北市萬華區福星里環河南路一段1號,縣市政府,25.04765604,121.5057072,特優級,交通,無障礙廁所,臺北市停車管理工程處,0
63000,63000120,一德里,A120001347,好市多北投店1F無障礙,臺北市北投區立德路117號,縣市政府,25.127562,121.470067,特優級,,無障礙廁所,好市多購物中心北投店,0
63000,63000120,一德里,A120001346,好市多北投店1F女廁,臺北市北投區立德路117號,縣市政府,25.127562,121.470067,特優級,,女廁所,好市多購物中心北投店,0
63000,63000120,一德里,A120001345,好市多北投店1F男廁,臺北市北投區立德路117號,縣市政府,25.127562,121.470067,特優級,,男廁所,好市多購物中心北投店,0
63000,63000120,一德里,A120001344,好市多北投店B1親子廁所,臺北市北投區立德路117號,縣市政府,25.127562,121.470067,特優級,,親子廁所,好市多購物中心北投店,0
63000,63000120,一德里,A120001343,好市多北投店B1無障礙,臺北市北投區立德路117號,縣市政府,25.127562,121.470067,特優級,,無障礙廁所,好市多購物中心北投店,0
63000,63000120,一德里,A120001342,好市多北投店B1女廁,臺北市北投區立德路117號,縣市政府,25.127562,121.470067,特優級,,女廁所,好市多購物中心北投店,0
63000,63000120,一德里,A120001341,好市多北投店B1男廁,臺北市北投區立德路117號,縣市政府,25.127562,121.470067,特優級,,男廁所,好市多購物中心北投店,0
63000,63000060,建明里,A060000891,京站時尚廣場B3北親子,臺北市大同區建明里承德路一段1號,縣市政府,25.04909,121.516784,特優級,,親子廁所,京站時尚廣場,0
63000,63000060,建明里,A060000890,京站時尚廣場B2西親子,臺北市大同區建明里承德路一段1號,縣市政府,25.04909,121.516784,特優級,,親子廁所,京站時尚廣場,0
63000,63000060,建明里,A060000889,京站時尚廣場B1西無障礙,臺北市大同區建明里承德路一段1號,縣市政府,25.04909,121.516784,特優級,,無障礙廁所,京站時尚廣場,0
63000,63000060,建明里,A060000888,京站時尚廣場1F無障礙,臺北市大同區建明里承德路一段1號,縣市政府,25.04909,121.516784,特優級,,無障礙廁所,京站時尚廣場,0
63000,63000060,建明里,A060000887,京站時尚廣場2F西無障礙,臺北市大同區建明里承德路一段1號,縣市政府,25.04909,121.516784,特優級,,無障礙廁所,京站時尚廣場,0
63000,63000060,建明里,A060000886,京站時尚廣場4F東親子,臺北市大同區建明里承德路一段1號,縣市政府,25.04909,121.516784,特優級,,親子廁所,京站時尚廣場,0
63000,63000100,港墘里,A100001455,大港墘公園地下停車場無障礙,臺北市內湖區港墘里洲子街18號,縣市政府,25.07851,121.574473,特優級,交通,無障礙廁所,臺北市停車管理工程處,0
63000,63000100,港墘里,A100001454,大港墘公園地下停車場女,臺北市內湖區港墘里洲子街18號,縣市政府,25.07851,121.574473,特優級,交通,女廁所,臺北市停車管理工程處,0
63000,63000100,港墘里,A100001453,大港墘公園地下停車場男,臺北市內湖區港墘里洲子街18號,縣市政府,25.07851,121.574473,特優級,交通,男廁所,臺北市停車管理工程處,0
63000,63000070,和平里,A070000519,萬板地下停車場無障礙,臺北市萬華區和平里艋舺大道462號,縣市政府,25.028325,121.490848,特優級,交通,無障礙廁所,臺北市停車管理工程處,0
63000,63000070,日善里,A070000654,萬華國中地下停車場女無障礙,臺北市萬華區日善里西藏路201號,縣市政府,25.02927685,121.499573,特優級,交通,無障礙廁所,臺北市停車管理工程處,0
63000,63000070,日善里,A070000653,萬華國中地下停車場男無障礙,臺北市萬華區日善里西藏路201號B1樓,縣市政府,25.02908,121.498909,特優級,交通,無障礙廁所,臺北市停車管理工程處,0
63000,63000100,港墘里,A100000255,內湖運動中心B1親子無障礙,臺北市內湖區港墘里洲子街12號,縣市政府,25.078233,121.575154,特優級,社福機構、集會場所,親子廁所,臺北市政府體育局,0
63000,63000030,光武里,A030001955,捷運忠孝復興站文湖線親子廁所,臺北市大安區光武里忠孝東路三段302號,縣市政府,25.041778,121.544984,特優級,交通,親子廁所,臺北大眾捷運股份有限公司,0
63000,63000030,光武里,A030001954,捷運忠孝復興站文湖線無障礙廁所,臺北市大安區光武里忠孝東路三段302號,縣市政府,25.041778,121.544984,特優級,交通,無障礙廁所,臺北大眾捷運股份有限公司,0
63000,63000060,保安里,A060000830,孔廟無障礙,臺北市大同區保安里大龍街275號,縣市政府,25.072548,121.516084,特優級,宗教禮儀場所,無障礙廁所,臺北市孔廟管理委員會,0
63000,63000060,保安里,A060000829,孔廟親子,臺北市大同區保安里大龍街275號,縣市政府,25.072548,121.516084,特優級,宗教禮儀場所,親子廁所,臺北市孔廟管理委員會,0
63000,63000080,木新里,A080001761,統一超商臺北市文山門市,臺北市文山區木新里文山區永安街22巷23號25號,縣市政府,24.98671444,121.5689671,特優級,商業營業場所,性別友善廁所,統一超商股份有限公司,0
63000,63000020,新仁里,A020001667,臺北大巨蛋2樓212男廁,臺北市信義區新仁里忠孝東路四段515號,縣市政府,25.042314,121.55953,特優級,文化育樂活動場所,男廁所,遠雄巨蛋事業股份有限公司,0
63000,63000020,新仁里,A020001666,臺北大巨蛋2樓212女廁,臺北市信義區新仁里忠孝東路四段515號,縣市政府,25.042314,121.55953,特優級,文化育樂活動場所,女廁所,遠雄巨蛋事業股份有限公司,0
63000,63000020,新仁里,A020001665,臺北大巨蛋2樓212無障礙廁所2,臺北市信義區新仁里忠孝東路四段515號,縣市政府,25.042314,121.55953,特優級,文化育樂活動場所,無障礙廁所,遠雄巨蛋事業股份有限公司,0
63000,63000020,新仁里,A020001664,臺北大巨蛋2樓212無障礙廁所1,臺北市信義區新仁里忠孝東路四段515號,縣市政府,25.042314,121.55953,特優級,文化育樂活動場所,無障礙廁所,遠雄巨蛋事業股份有限公司,0
63000,63000020,新仁里,A020001650,臺北大巨蛋B1本壘右後112無障礙廁所2,臺北市信義區新仁里忠孝東路四段515號,縣市政府,25.042314,121.55953,特優級,文化育樂活動場所,無障礙廁所,遠雄巨蛋事業股份有限公司,0
63000,63000020,新仁里,A020001649,臺北大巨蛋B1本壘右後112無障礙廁所1,臺北市信義區新仁里忠孝東路四段515號,縣市政府,25.042314,121.55953,特優級,文化育樂活動場所,無障礙廁所,遠雄巨蛋事業股份有限公司,0
63000,63000020,新仁里,A020001648,臺北大巨蛋B1本壘右後112女廁,臺北市信義區新仁里忠孝東路四段515號,縣市政府,25.042314,121.55953,特優級,文化育樂活動場所,女廁所,遠雄巨蛋事業股份有限公司,0
63000,63000020,新仁里,A020001647,臺北大巨蛋B1本壘左後114無障礙廁所2,臺北市信義區新仁里忠孝東路四段515號,縣市政府,25.042314,121.55953,特優級,文化育樂活動場所,無障礙廁所,遠雄巨蛋事業股份有限公司,0
63000,63000100,湖元里,A100000967,臺北花卉批發市場A5無障礙,臺北市內湖區湖元里新湖三路28號至36號,縣市政府,25.063773,121.576713,特優級,商業營業場所,無障礙廁所,臺北市市場處,0
63000,63000100,湖元里,A100000966,臺北花卉批發市場A4無障礙,臺北市內湖區湖元里新湖三路28號至36號,縣市政府,25.06319953,121.5744066,特優級,商業營業場所,無障礙廁所,臺北市市場處,0
63000,63000100,湖元里,A100000965,臺北花卉批發市場A1無障礙,臺北市內湖區湖元里新湖三路28號至36號,縣市政府,25.063773,121.576713,特優級,商業營業場所,無障礙廁所,臺北市市場處,0
63000,63000030,光武里,A030000402,太平洋崇光百貨台北忠孝館B1F無障礙,臺北市大安區光武里忠孝東路四段45號,縣市政府,25.041902,121.544883,特優級,商業營業場所,無障礙廁所,太平洋崇光百貨(忠孝店),0
63000,63000030,光武里,A030000401,太平洋崇光百貨台北忠孝館4F無障礙,臺北市大安區光武里忠孝東路四段45號,縣市政府,25.041902,121.544883,特優級,商業營業場所,無障礙廁所,太平洋崇光百貨(忠孝店),0
63000,63000030,光武里,A030000400,太平洋崇光百貨台北忠孝館7F無障礙,臺北市大安區光武里忠孝東路四段45號,縣市政府,25.041902,121.544883,特優級,商業營業場所,無障礙廁所,太平洋崇光百貨(忠孝店),0
63000,63000040,康樂里,A040001346,中山康樂公園無障礙,臺北市中山區康樂里林森北路與南京東路一段交叉口,縣市政府,25.05318894,121.5248609,特優級,公園,無障礙廁所,臺北市政府工務局公園路燈工程管理處,1
63000,63000040,康樂里,A040001345,中山康樂公園女,臺北市中山區康樂里林森北路與南京東路一段交叉口,縣市政府,25.05302371,121.5249682,特優級,公園,女廁所,臺北市政府工務局公園路燈工程管理處,0
63000,63000070,富福里,A070000932,公有龍山商場3F無障礙,臺北市萬華區富福里和平西路三段120號萬華行政中心,縣市政府,25.035011,121.499812,特優級,商業營業場所,無障礙廁所,臺北市市場處,0
63000,63000070,富福里,A070000931,公有龍山商場2F無障礙,臺北市萬華區富福里和平西路三段120號萬華行政中心,縣市政府,25.035011,121.499812,特優級,商業營業場所,無障礙廁所,臺北市市場處,0
63000,63000070,富福里,A070000930,公有龍山商場1F無障礙,臺北市萬華區富福里和平西路三段120號,縣市政府,25.035011,121.499812,特優級,商業營業場所,無障礙廁所,臺北市市場處,1
63000,63000120,湖田里,A120001328,陽明山國家公園小油坑地質景觀區親子廁所,臺北市北投區湖田里臺北市北投區小油坑地質景觀區遊客服務中心,內政部,25.176461,121.546882,特優級,觀光地區及風景區,親子廁所,內政部國家公園署陽明山國家公園管理處,0
63000,63000050,光復里,A050001901,統一超商臺北市大永博門市男女,臺北市中正區光復里博愛路97號,縣市政府,25.043032,121.511606,特優級,商業營業場所,混合廁所,統一超商股份有限公司,0
63000,63000050,龍興里,A050001899,統一超商臺北市汀州門市男女,臺北市中正區龍興里汀州路一段129號,縣市政府,25.02801,121.509561,特優級,商業營業場所,混合廁所,統一超商股份有限公司,0
63000,63000050,螢圃里,A050001898,統一超商臺北市新文華門市男女,臺北市中正區螢圃里廈門街77號,縣市政府,25.02472719,121.5175036,特優級,商業營業場所,混合廁所,統一超商股份有限公司,0
63000,63000070,福星里,A070000927,統一超商臺北市六福門市男女,臺北市萬華區福星里漢口街二段73號,縣市政府,25.046136,121.505249,特優級,商業營業場所,混合廁所,統一超商股份有限公司,0
63000,63000070,全德里,A070000926,統一超商臺北市新艋舺門市男女,臺北市萬華區全德里萬大路292號,縣市政府,25.025272,121.500292,特優級,商業營業場所,混合廁所,統一超商股份有限公司,0
63000,63000090,東明里,A090000721,臺北流行音樂中心1F戶外性別友善廁所,臺北市南港區東明里市民大道八段99號,縣市政府,25.052638,121.598507,特優級,文化育樂活動場所,性別友善廁所,臺北流行音樂中心,0
63000,63000090,東明里,A090000720,臺北流行音樂中心1F戶外無障礙廁所,臺北市南港區東明里市民大道八段99號,縣市政府,25.052638,121.598507,特優級,文化育樂活動場所,無障礙廁所,臺北流行音樂中心,0
63000,63000110,岩山里,A110001960,聯合醫院陽明院區2-4無障礙,臺北市士林區岩山里雨聲街105號,臺北市政府衛生局,25.105194,121.531566,特優級,社福機構、集會場所,無障礙廁所,臺北市政府衛生局,0
63000,63000110,岩山里,A110001959,聯合醫院陽明院區1F無障礙,臺北市士林區岩山里雨聲街105號,臺北市政府衛生局,25.10519377,121.5315637,特優級,社福機構、集會場所,無障礙廁所,臺北市政府衛生局,0
63000,63000110,福德里,A110001958,士林區公所8F右無障礙,臺北市士林區福德里中正路439號,臺北市政府民政局,25.092845,121.519698,特優級,民眾洽公場所,無障礙廁所,士林區公所,0
63000,63000020,黎平里,A020001701,六張犁派出所無障礙,臺北市信義區黎平里嘉興街301號,縣市政府,25.023674,121.555199,特優級,民眾洽公場所,親子廁所,臺北市政府警察局信義分局,0
63000,63000020,黎平里,A020001700,六張犁派出所女廁,臺北市信義區黎平里嘉興街301號,縣市政府,25.023674,121.555199,特優級,民眾洽公場所,女廁所,臺北市政府警察局信義分局,0
63000,63000100,湖興里,A100001464,防災科學教育館2F無障礙,臺北市內湖區湖興里成功路二段376號,縣市政府,25.06931967,121.5903792,特優級,文化育樂活動場所,無障礙廁所,防災科學教育館,0
63000,63000120,稻香里,A120001324,臺北市立圖書館稻香分館9F無障礙,臺北市北投區稻香里臺北市北投區稻香路81號7樓,縣市政府,25.14094323,121.4886028,特優級,文化育樂活動場所,無障礙廁所,臺北市立圖書館,0
63000,63000120,稻香里,A120001323,臺北市立圖書館稻香分館9F性別友善,臺北市北投區稻香里臺北市北投區稻香路81號7樓,縣市政府,25.14094323,121.4885947,特優級,文化育樂活動場所,性別友善廁所,臺北市立圖書館,0
63000,63000120,稻香里,A120001322,臺北市立圖書館稻香分館8F無障礙,臺北市北投區稻香里臺北市北投區稻香路81號7樓,縣市政府,25.14094323,121.4885947,特優級,文化育樂活動場所,無障礙廁所,臺北市立圖書館,0
63000,63000120,稻香里,A120001321,臺北市立圖書館稻香分館8F親子廁所,臺北市北投區稻香里臺北市北投區稻香路81號7樓,縣市政府,25.14092137,121.488643,特優級,文化育樂活動場所,親子廁所,臺北市立圖書館,0
63000,63000090,南港里,A090000789,國稅局南港稽徵所5F女,臺北市南港區南港里南港路一段360號,財政部,25.05457759,121.6068158,特優級,民眾洽公場所,女廁所,財政部臺北市國稅局,0
63000,63000090,南港里,A090000788,南港區健康服務中心7F女,臺北市南港區南港里南港路一段360號,縣市政府,25.0546031,121.6068158,特優級,民眾洽公場所,女廁所,臺北市政府衛生局,0
63000,63000090,南港里,A090000787,南港區戶政事務所4F無障礙,臺北市南港區南港里南港路一段360號,縣市政府,25.05460796,121.6066615,特優級,民眾洽公場所,無障礙廁所,臺北市政府民政局,0
63000,63000090,南港里,A090000786,南港區戶政事務所4F女,臺北市南港區南港里南港路一段360號,縣市政府,25.05459824,121.6066602,特優級,民眾洽公場所,女廁所,臺北市政府民政局,0
63000,63000090,南港里,A090000785,南港區公所10F禮堂女,臺北市南港區南港里南港路一段360號,縣市政府,25.0547003,121.6067916,特優級,民眾洽公場所,女廁所,臺北市政府,0
63000,63000090,南港里,A090000784,南港區公所9F女,臺北市南港區南港里南港路一段360號,縣市政府,25.05469787,121.6067916,特優級,民眾洽公場所,女廁所,臺北市政府,0
63000,63000090,南港里,A090000783,南港區公所8F無障礙,臺北市南港區南港里南港路一段360號,縣市政府,25.05465656,121.6068292,特優級,民眾洽公場所,無障礙廁所,臺北市政府,0
63000,63000090,南港里,A090000782,南港區公所8F女,臺北市南港區南港里南港路一段360號,縣市政府,25.05469058,121.6067755,特優級,民眾洽公場所,女廁所,臺北市政府,0
63000,63000090,南港里,A090000781,南港區公所6F女,臺北市南港區南港里南港路一段360號,縣市政府,25.05467357,121.6067943,特優級,民眾洽公場所,女廁所,臺北市政府,0
63000,63000090,南港里,A090000780,臺北市稅捐稽徵處南港分處3F女,臺北市南港區南港里南港路一段360號,縣市政府,25.05463712,121.6068292,特優級,民眾洽公場所,女廁所,臺北市稅捐稽徵處,0
63000,63000090,南港里,A090000779,南港區公所2F無障礙,臺北市南港區南港里南港路一段360號,縣市政府,25.05469179,121.6067903,特優級,民眾洽公場所,無障礙廁所,臺北市政府,0
63000,63000090,南港里,A090000778,南港區公所2F女,臺北市南港區南港里南港路一段360號,縣市政府,25.0547003,121.6067916,特優級,民眾洽公場所,女廁所,臺北市政府,0
63000,63000090,南港里,A090000777,聯合醫院南港門診部1樓無障礙,臺北市南港區南港里南港路一段360號,縣市政府,25.05461768,121.6068091,特優級,民眾洽公場所,無障礙廁所,臺北市政府衛生局,0
63000,63000090,南港里,A090000776,聯合醫院南港門診部1樓女,臺北市南港區南港里南港路一段360號,縣市政府,25.05460796,121.6068184,特優級,民眾洽公場所,女廁所,臺北市政府衛生局,0
63000,63000110,臨溪里,A110002018,順益臺灣原住民博物館無障礙,"臺北市士林區臨溪里至善路二段282號 ",臺北市政府文化局,25.101026,121.551944,特優級,文化育樂活動場所,無障礙廁所,順益臺灣原住民博物館,0
63000,63000120,永和里,A120001325,陽明山國家公園龍鳳谷遊客服務站親子廁所,臺北市北投區永和里臺北市北投區陽金公路,內政部,25.14315279,121.5285999,特優級,觀光地區及風景區,親子廁所,內政部國家公園署陽明山國家公園管理處,0
63000,63000120,中心里,A120001302,北投七星公園(233)無障礙,臺北市北投區中心里臺北市北投區七星街3號,縣市政府,25.136648,121.502123,特優級,公園,無障礙廁所,臺北市政府工務局公園路燈工程管理處,0
63000,63000120,東華里,A120001301,東華公園無障礙,臺北市北投區東華里臺北市北投區東華街二段300巷,縣市政府,25.121407,121.50675,特優級,公園,無障礙廁所,臺北市政府工務局公園路燈工程管理處,0
63000,63000120,榮光里,A120001300,自強綜合市場女廁,臺北市北投區榮光里台北市北投區自強街125號,縣市政府,25.111038,121.515707,特優級,商業營業場所,女廁所,臺北市市場處,0
63000,63000100,五分里,A100001463,台灣中油東湖加油站無障礙,臺北市內湖區五分里康寧路三段225號,經濟部,25.067504,121.611904,特優級,交通,無障礙廁所,台灣中油股份有限公司,0
63000,63000100,五分里,A100001462,台灣中油東湖加油站女廁,臺北市內湖區五分里康寧路三段225號,經濟部,25.067504,121.611904,特優級,交通,女廁所,台灣中油股份有限公司,0
63000,63000030,龍陣里,A030001951,公有安東市場無障礙,臺北市大安區龍陣里瑞安街75號,縣市政府,25.028117,121.54093,特優級,商業營業場所,無障礙廁所,臺北市市場處,0
63000,63000030,龍陣里,A030001950,公有安東市場女廁,臺北市大安區龍陣里瑞安街75號,縣市政府,25.028117,121.54093,特優級,商業營業場所,女廁所,臺北市市場處,0
63000,63000030,黎和里,A030001947,富陽自然生態公園男廁,臺北市大安區黎和里臥龍街272巷,縣市政府,25.01669197,121.5573961,特優級,公園,男廁所,臺北市政府工務局公園路燈工程管理處,0
63000,63000010,慈祐里,A010000532,松山區公所1樓無障礙,臺北市松山區慈祐里八德路四段692號,縣市政府,25.049854,121.577171,特優級,民眾洽公場所,無障礙廁所,臺北市松山區公所,0
63000,63000010,慈祐里,A010000531,松山區公所1樓性別友善,臺北市松山區慈祐里八德路四段692號,縣市政府,25.049854,121.577171,特優級,民眾洽公場所,性別友善廁所,臺北市松山區公所,0
63000,63000110,福佳里,A110000626,天文科學教育館73無障礙,臺北市士林區福佳里基河路363號,臺北市政府教育局,25.095783,121.518345,特優級,文化育樂活動場所,無障礙廁所,文科學教育館,0
63000,63000110,福佳里,A110000625,天文科學教育館1樓-F女,臺北市士林區福佳里基河路363號,臺北市政府教育局,25.095783,121.518345,特優級,文化育樂活動場所,女廁所,文科學教育館,0
63000,63000110,福佳里,A110000624,天文科學教育館1樓-E男,臺北市士林區福佳里基河路363號,臺北市政府教育局,25.095783,121.518345,特優級,文化育樂活動場所,男廁所,文科學教育館,0
63000,63000120,中心里,A120000800,復興公園2號性別友善,臺北市北投區中心里臺北市北投區中和街200號,縣市政府,25.13956769,121.5032101,特優級,公園,性別友善廁所,臺北市政府工務局公園路燈工程管理處,0
63000,63000120,中心里,A120000799,復興公園2號無障礙,臺北市北投區中心里臺北市北投區中和街200號,縣市政府,25.13957012,121.5032007,特優級,公園,無障礙廁所,公園路燈工程管理處陽明山公園管理所復興公園,0
63000,63000120,中心里,A120000798,復興公園2號女,臺北市北投區中心里臺北市北投區中和街200號,縣市政府,25.13956284,121.5032074,特優級,公園,女廁所,臺北市政府工務局公園路燈工程管理處,0
63000,63000010,吉祥里,A010000642,中崙高中地下停車場無障礙,臺北市松山區吉祥里八德路四段101號B2,縣市政府,25.048705,121.561069,特優級,交通,無障礙廁所,臺北市停車管理工程處,0
63000,63000010,吉祥里,A010000641,中崙高中地下停車場女,臺北市松山區吉祥里八德路四段101號B2,縣市政府,25.048705,121.561069,特優級,交通,女廁所,臺北市停車管理工程處,0
63000,63000020,西村里,A020000289,遠百信義A13-B2西側男廁,臺北市信義區西村里松仁路58號,縣市政府,25.036732,121.567967,特優級,商業營業場所,男廁所,遠東百貨股份有限公司,0
63000,63000020,西村里,A020000288,遠百信義A13-B2東側女廁,臺北市信義區西村里松仁路58號,縣市政府,25.036732,121.567967,特優級,商業營業場所,女廁所,遠東百貨股份有限公司,0
63000,63000020,西村里,A020000287,遠百信義A13-B2東側男廁,臺北市信義區西村里松仁路58號,縣市政府,25.036732,121.567967,特優級,商業營業場所,男廁所,遠東百貨股份有限公司,0
63000,63000020,西村里,A020000286,遠百信義A13-B3東側親子廁所,臺北市信義區西村里松仁路58號,縣市政府,25.036732,121.567967,特優級,商業營業場所,親子廁所,遠東百貨股份有限公司,1
63000,63000020,西村里,A020000285,遠百信義A13-B3東側女廁,臺北市信義區西村里松仁路58號,縣市政府,25.036732,121.567967,特優級,商業營業場所,女廁所,遠東百貨股份有限公司,0
63000,63000020,西村里,A020000284,遠百信義A13-B3東側男廁,臺北市信義區西村里松仁路58號,縣市政府,25.036732,121.567967,特優級,商業營業場所,男廁所,遠東百貨股份有限公司,0
63000,63000020,西村里,A020000283,遠百信義A13-B3西側無障礙,臺北市信義區西村里松仁路58號,縣市政府,25.036732,121.567967,特優級,商業營業場所,無障礙廁所,遠東百貨股份有限公司,1
63000,63000020,西村里,A020000282,遠百信義A13-B3西側女廁,臺北市信義區西村里松仁路58號,縣市政府,25.036732,121.567967,特優級,商業營業場所,女廁所,遠東百貨股份有限公司,0
63000,63000020,西村里,A020000281,遠百信義A13-B3西側男廁,臺北市信義區西村里松仁路58號,縣市政府,25.036732,121.567967,特優級,商業營業場所,男廁所,遠東百貨股份有限公司,0
63000,63000020,西村里,A020000280,遠百信義A13-B4無障礙,臺北市信義區西村里松仁路58號,縣市政府,25.036732,121.567967,特優級,商業營業場所,無障礙廁所,遠東百貨股份有限公司,0
63000,63000100,安湖里,A100001083,家樂福便利購超市內湖東湖分公司男女,臺北市內湖區安湖里東湖路69號,縣市政府,25.06870714,121.6150192,特優級,商業營業場所,混合廁所,家樂福便利購超市內湖東湖分公司,0
63000,63000100,湖濱里,A100000430,家樂福便利購超市內湖成功分公司男女,臺北市內湖區湖濱里成功路三段174巷8號,縣市政府,25.080933,121.590559,特優級,商業營業場所,混合廁所,家樂福便利購超市內湖成功分公司,0
63000,63000100,五分里,A100000725,臺北市立圖書館東湖分館4F無障礙,臺北市內湖區五分里五分街6號,縣市政府,25.067564,121.612595,特優級,文化育樂活動場所,無障礙廁所,臺北市立圖書館,0
63000,63000100,五分里,A100000724,臺北市立圖書館東湖分館3F無障礙,臺北市內湖區五分里五分街6號,縣市政府,25.067564,121.612595,特優級,文化育樂活動場所,無障礙廁所,臺北市立圖書館,0
63000,63000100,五分里,A100000723,臺北市立圖書館東湖分館2F無障礙,臺北市內湖區五分里文德路22巷25號,縣市政府,25.067415,121.61261,特優級,文化育樂活動場所,無障礙廁所,臺北市立圖書館,0
63000,63000100,五分里,A100000722,臺北市立圖書館東湖分館1F無障礙,臺北市內湖區五分里五分街6號,縣市政府,25.06727156,121.61273,特優級,文化育樂活動場所,無障礙廁所,臺北市立圖書館,0
63000,63000120,奇岩里,A120000580,臺北市立圖書館清江分館無障礙,臺北市北投區奇岩里臺北市北投區公館路198號,縣市政府,25.127758,121.50721,特優級,文化育樂活動場所,無障礙廁所,臺北市立圖書館,0
63000,63000080,興泰里,A080000678,車容坊加油站辛亥站無障礙,臺北市文山區興泰里文山區辛亥路四段100號,縣市政府,25.006094,121.557828,特優級,商業營業場所,無障礙廁所,車容坊股份有限公司,0
63000,63000110,福林里,A110002011,台灣中油福林加油站女廁,"臺北市士林區福林里中山北路五段465號 ",經濟部,25.092426,121.527544,特優級,商業營業場所,女廁所,台灣中油股份有限公司,0
63000,63000010,美仁里,A010001275,臺北田徑場暖身場女廁,臺北市松山區美仁里敦化北路3號,縣市政府,25.0495527,121.5510979,特優級,文化育樂活動場所,女廁所,臺北市政府體育局,0
63000,63000010,美仁里,A010001274,臺北田徑場暖身場男廁,臺北市松山區美仁里敦化北路3號,縣市政府,25.04955756,121.5511006,特優級,文化育樂活動場所,男廁所,臺北市政府體育局,0
63000,63000090,中南里,A090000741,南港轉運站西站無障礙廁所,臺北市南港區中南里忠孝東路七段359號,縣市政府,25.052512,121.606056,特優級,交通,無障礙廁所,國光客運汽車股份有限公司,0
63000,63000090,中南里,A090000740,南港轉運站西站女廁,臺北市南港區中南里忠孝東路七段359號,縣市政府,25.052512,121.606056,特優級,交通,女廁所,國光客運汽車股份有限公司,0
63000,63000090,中南里,A090000739,南港轉運站西站男廁,臺北市南港區中南里忠孝東路七段359號,行政院,25.052512,121.606056,特優級,交通,男廁所,國光客運汽車股份有限公司,0
63000,63000030,通化里,A030001943,台灣中油信義路加油站女廁,臺北市大安區通化里信義路四段374號,經濟部,25.032931,121.555457,特優級,商業營業場所,女廁所,台灣中油股份有限公司,0
63000,63000030,龍門里,A030001942,台灣中油龍安加油站無障礙,臺北市大安區龍門里和平東路二段2號,經濟部,25.025713,121.535319,特優級,商業營業場所,無障礙廁所,台灣中油股份有限公司,0
63000,63000030,龍門里,A030001941,台灣中油龍安加油站女廁,臺北市大安區龍門里和平東路二段2號,經濟部,25.025713,121.535319,特優級,商業營業場所,女廁所,台灣中油股份有限公司,0
63000,63000030,龍圖里,A030001940,勝利加油站無障礙,臺北市大安區龍圖里建國南路二段75-1號,縣市政府,25.030951,121.538139,特優級,商業營業場所,無障礙廁所,財團法人台北市私立勝利身心障礙潛能發展中心,0
63000,63000030,龍圖里,A030001939,勝利加油站女廁,臺北市大安區龍圖里建國南路二段75-1號,縣市政府,25.030951,121.538139,特優級,商業營業場所,女廁所,財團法人台北市私立勝利身心障礙潛能發展中心,0
63000,63000030,民輝里,A030001938,陽光加油站無障礙,臺北市大安區民輝里建國南路一段57-1號,縣市政府,25.044017,121.536225,特優級,商業營業場所,無障礙廁所,財團法人陽光社會福利基金會,0
63000,63000030,民輝里,A030001937,陽光加油站女廁,臺北市大安區民輝里建國南路一段57-1號,縣市政府,25.044017,121.536225,特優級,商業營業場所,女廁所,財團法人陽光社會福利基金會,0
63000,63000030,民輝里,A030001936,台灣中油新生南路加油站女廁,臺北市大安區民輝里仁愛路三段1號,經濟部,25.03847286,121.5331972,特優級,商業營業場所,女廁所,台灣中油股份有限公司,0
63000,63000030,永康里,A030001935,台灣中油金山南路加油站無障礙,臺北市大安區永康里金山南路二段77號,經濟部,25.03148,121.527198,特優級,商業營業場所,無障礙廁所,台灣中油股份有限公司,0
63000,63000020,松隆里,A020001709,信義公園7號,臺北市信義區松山路677-11號,縣市政府,25.026067,121.582268,特優級,民眾洽公場所,混合廁所,臺北市環保局,0
63000,63000090,東明里,A090000386,臺北流行音樂中心3F-G區無障礙-2,臺北市南港區東明里市民大道八段99號,縣市政府,25.05265831,121.5985565,特優級,文化育樂活動場所,無障礙廁所,臺北流行音樂中心,0
63000,63000100,湖元里,A100001059,大潤發購物中心內湖二店4樓無障礙,臺北市內湖區湖元里新湖三路28號至36號,縣市政府,25.062653,121.575989,特優級,商業營業場所,無障礙廁所,大潤發購物中心內湖二店,0
63000,63000100,湖元里,A100001058,大潤發購物中心內湖二店2樓無障礙,臺北市內湖區湖元里新湖三路28號至36號,縣市政府,25.062653,121.575989,特優級,商業營業場所,無障礙廁所,大潤發購物中心內湖二店,0
63000,63000100,湖元里,A100001057,大潤發購物中心內湖二店1樓無障礙,臺北市內湖區湖元里舊宗路一段188號,縣市政府,25.062653,121.575989,特優級,商業營業場所,無障礙廁所,大潤發購物中心內湖二店,0
63000,63000100,湖元里,A100001056,大潤發購物中心內湖二店1樓親子廁所,臺北市內湖區湖元里舊宗路一段188號,縣市政府,25.06274761,121.5760481,特優級,商業營業場所,親子廁所,大潤發購物中心內湖二店,0
63000,63000100,湖元里,A100001055,大潤發購物中心內湖二店B1無障礙,臺北市內湖區湖元里舊宗路一段188號,縣市政府,25.062653,121.575989,特優級,商業營業場所,無障礙廁所,大潤發購物中心內湖二店,0
63000,63000060,建泰里,A060000171,捷運中山站親子廁所,臺北市大同區建泰里南京西路16號,縣市政府,25.052505,121.520332,特優級,交通,親子廁所,臺北大眾捷運股份有限公司,0
63000,63000060,老師里,A060000750,啟聰學校地下停車場B1無障礙,臺北市大同區老師里平北路四段205號地下室,縣市政府,25.074299,121.511747,特優級,交通,無障礙廁所,臺北市停車管理工程處,0
63000,63000060,老師里,A060000749,啟聰學校地下停車場B1女,臺北市大同區老師里延平北路四段205號地下室,縣市政府,25.074299,121.511747,特優級,交通,女廁所,臺北市停車管理工程處,0
63000,63000060,老師里,A060000748,啟聰學校地下停車場B1男,臺北市大同區老師里延平北路四段205號地下室,縣市政府,25.074299,121.511747,特優級,交通,男廁所,臺北市停車管理工程處,0
63000,63000060,玉泉里,A060000059,聯合醫院中興院區1C-3無障礙,臺北市大同區玉泉里鄭州路145號,縣市政府,25.050692,121.508887,特優級,社福機構、集會場所,無障礙廁所,臺北市政府衛生局,0
63000,63000060,玉泉里,A060000058,聯合醫院中興院區1C-2女,臺北市大同區玉泉里鄭州路145號,縣市政府,25.050692,121.508887,特優級,社福機構、集會場所,女廁所,臺北市政府衛生局,0
63000,63000020,興雅里,A020000920,微風信義4F女,臺北市信義區興雅里忠孝東路五段68號,縣市政府,25.040648,121.566694,特優級,商業營業場所,女廁所,微風信義,0
63000,63000020,興雅里,A020000919,微風信義4F男,臺北市信義區興雅里忠孝東路五段68號,縣市政府,25.040648,121.566694,特優級,商業營業場所,男廁所,微風信義,0
63000,63000100,湖元里,A100001081,悅家居百貨3F親子,臺北市內湖區湖元里舊宗路一段150巷25號,縣市政府,25.062212,121.576436,特優級,商業營業場所,親子廁所,悅家居企業股份有限公司,0
63000,63000100,湖元里,A100001080,悅家居百貨3F女,臺北市內湖區湖元里舊宗路一段150巷25號,縣市政府,25.062212,121.576436,特優級,商業營業場所,女廁所,悅家居企業股份有限公司,0
63000,63000110,蘭雅里,A110001465,蘭雅公園地下停車場無障礙,臺北市士林區蘭雅里德行東路129巷31號,臺北市停車管理工程處,25.109589,121.529246,特優級,交通,無障礙廁所,臺北市停車管理工程處,0
63000,63000110,蘭雅里,A110001464,蘭雅公園地下停車場女,臺北市士林區蘭雅里德行東路129巷31號,臺北市停車管理工程處,25.109589,121.529246,特優級,交通,女廁所,臺北市停車管理工程處,0
63000,63000110,蘭雅里,A110001463,蘭雅公園地下停車場男,臺北市士林區蘭雅里德行東路129巷31號,臺北市停車管理工程處,25.109589,121.529246,特優級,交通,男廁所,臺北市停車管理工程處,0
63000,63000090,南港里,A090000016,台灣高鐵南港站女旁親子廁所,臺北市南港區南港里南港路一段313號,交通部,25.0533979,121.607194,特優級,交通,親子廁所,台灣高速鐵路股份有限公司南港站,0
63000,63000090,南港里,A090000015,台灣高鐵南港站女,臺北市南港區南港里南港路一段313號,交通部,25.053574,121.607333,特優級,交通,女廁所,台灣高速鐵路股份有限公司南港站,0
63000,63000090,南港里,A090000014,台灣高鐵南港站男旁無障礙,臺北市南港區南港里南港路一段313號,交通部,25.05340276,121.60721,特優級,交通,無障礙廁所,台灣高速鐵路股份有限公司南港站,0
63000,63000090,南港里,A090000013,台灣高鐵南港站男,臺北市南港區南港里南港路一段313號,交通部,25.05340155,121.6071953,特優級,交通,男廁所,台灣高速鐵路股份有限公司南港站,0
63000,63000050,幸福里,A050001479,捷運善導寺站親子,臺北市中正區幸福里忠孝東路一段58號,縣市政府,25.046303,121.515823,特優級,交通,親子廁所,臺北大眾捷運股份有限公司,0
63000,63000010,中正里,A010000969,行天宮附設玄空圖書館4F男,臺北市松山區中正里敦化北路120巷9號,縣市政府,25.053842,121.547693,特優級,文化育樂活動場所,男廁所,財團法人臺北行天宮,0
63000,63000010,中正里,A010000968,行天宮附設玄空圖書館3F女,臺北市松山區中正里敦化北路120巷9號,縣市政府,25.053842,121.547693,特優級,文化育樂活動場所,女廁所,財團法人臺北行天宮,0
63000,63000010,中正里,A010000967,行天宮附設玄空圖書館3F男,臺北市松山區中正里敦化北路120巷9號,縣市政府,25.053842,121.547693,特優級,文化育樂活動場所,男廁所,財團法人臺北行天宮,0
63000,63000010,中正里,A010000966,行天宮附設玄空圖書館2F女,臺北市松山區中正里敦化北路120巷9號,縣市政府,25.053842,121.547693,特優級,文化育樂活動場所,女廁所,財團法人臺北行天宮,0
63000,63000010,中正里,A010000965,行天宮附設玄空圖書館2F男,臺北市松山區中正里敦化北路120巷9號,縣市政府,25.053842,121.547693,特優級,文化育樂活動場所,男廁所,財團法人臺北行天宮,0
63000,63000010,中正里,A010000964,行天宮附設玄空圖書館1F女,臺北市松山區中正里敦化北路120巷9號,縣市政府,25.053842,121.547693,特優級,文化育樂活動場所,女廁所,財團法人臺北行天宮,0
63000,63000010,中正里,A010000963,行天宮附設玄空圖書館1F男,臺北市松山區中正里敦化北路120巷9號,縣市政府,25.053842,121.547693,特優級,文化育樂活動場所,男廁所,財團法人臺北行天宮,0
63000,63000080,景行里,A080000094,臺北市立圖書館景新分館7F無障礙,臺北市文山區景行里文山區景後街151號7樓,縣市政府,24.990001,121.541916,特優級,其他,無障礙廁所,臺北市立圖書館,1
63000,63000060,揚雅里,A060000714,臺北市立圖書館蘭州民眾閱覽室親子,臺北市大同區揚雅里昌吉街57號4樓,縣市政府,25.06602275,121.5151244,特優級,文化育樂活動場所,親子廁所,臺北市立圖書館,0
63000,63000010,莊敬里,A010001286,台灣中油濱江大直橋加油加氣站無障礙,臺北市松山區莊敬里濱江街373號,經濟部,25.072592,121.551928,特優級,商業營業場所,無障礙廁所,台灣中油股份有限公司,0
63000,63000010,莊敬里,A010001285,台灣中油濱江大直橋加油加氣站女,臺北市松山區莊敬里濱江街373號,經濟部,25.072592,121.551928,特優級,商業營業場所,女廁所,台灣中油股份有限公司,0
63000,63000110,社園里,A110000858,社子公園無障礙,臺北市士林區社園里永平街46巷3弄11號,臺北市政府工務局公園路燈工程管理處,25.09024068,121.5060204,特優級,公園,無障礙廁所,臺北市政府工務局公園路燈工程管理處,0
63000,63000110,社園里,A110000857,社子公園女廁,臺北市士林區社園里永平街46巷3弄11號,臺北市政府工務局公園路燈工程管理處,25.09021207,121.5060043,特優級,公園,女廁所,臺北市政府公園路燈工程管理處,0
63000,63000110,三玉里,A110001428,臺北市職能發展學院教學3F性別友善,臺北市士林區士東路301號,縣市政府,25.114732,121.537719,特優級,,性別友善廁所,臺北市政府勞工局,0
63000,63000110,三玉里,A110001427,臺北市職能發展學院教學4F性別友善,臺北市士林區士東路301號,縣市政府,25.114732,121.537719,特優級,,性別友善廁所,臺北市政府勞工局,0
63000,63000110,三玉里,A110001426,臺北市職能發展學院教學5F性別友善,臺北市士林區士東路301號,縣市政府,25.114732,121.537719,特優級,,性別友善廁所,臺北市政府勞工局,0
63000,63000070,富福里,A070000473,萬華區公所13F無障礙,臺北市萬華區富福里和平西路三段120號,縣市政府,25.03481301,121.4998318,特優級,民眾洽公場所,無障礙廁所,臺北市政府,1
63000,63000070,富福里,A070000472,萬華區公所12F無障礙,臺北市萬華區富福里和平西路三段120號,縣市政府,25.03480815,121.4998359,特優級,民眾洽公場所,無障礙廁所,臺北市政府,1
63000,63000070,富福里,A070000471,萬華區公所11F無障礙,臺北市萬華區富福里和平西路三段120號,縣市政府,25.03482151,121.4998359,特優級,民眾洽公場所,無障礙廁所,臺北市政府,1
63000,63000070,富福里,A070000470,萬華區公所10F無障礙,臺北市萬華區富福里和平西路三段120號,縣市政府,25.03481301,121.4998291,特優級,民眾洽公場所,無障礙廁所,臺北市政府,1
63000,63000110,天母里,A110001666,天母公園親子廁所,臺北市士林區天母里中山北路七段219號,臺北市政府工務局公園路燈工程管理處,25.123159,121.531923,特優級,公園,親子廁所,臺北市政府工務局公園路燈工程管理處,0
63000,63000110,天母里,A110001665,天母公園無障礙,臺北市士林區天母里中山北路七段219號,臺北市政府工務局公園路燈工程管理處,25.123159,121.531923,特優級,公園,無障礙廁所,臺北市政府工務局公園路燈工程管理處,0
63000,63000110,天母里,A110001664,天母公園女,臺北市士林區天母里中山北路七段219號,臺北市政府工務局公園路燈工程管理處,25.123159,121.531923,特優級,公園,女廁所,臺北市政府工務局公園路燈工程管理處,0
63000,63000060,民權里,A060000478,台灣中油民權西路加油站無障礙,臺北市大同區民權里民權西路194號,經濟部,25.062768,121.514233,特優級,商業營業場所,無障礙廁所,台灣中油股份有限公司,0
63000,63000060,民權里,A060000477,台灣中油民權西路加油站女,臺北市大同區民權里民權西路194號,經濟部,25.062768,121.514233,特優級,商業營業場所,女廁所,台灣中油股份有限公司,0
63000,63000010,三民里,A010000078,民生社區中心集會堂4F東女,臺北市松山區三民里民生東路五段163之1號,縣市政府,25.059287,121.562907,特優級,社福機構、集會場所,女廁所,臺北市政府民政局,0
63000,63000010,三民里,A010000077,民生社區中心集會堂4F東男,臺北市松山區三民里民生東路五段163之1號,縣市政府,25.059287,121.562907,特優級,社福機構、集會場所,男廁所,臺北市政府民政局,0
63000,63000010,三民里,A010000076,民生社區中心集會堂3F西女,臺北市松山區三民里民生東路五段163之1號,縣市政府,25.059287,121.562907,特優級,社福機構、集會場所,女廁所,臺北市政府民政局,0
63000,63000010,三民里,A010000075,民生社區中心集會堂3F西男,臺北市松山區三民里民生東路五段163之1號,縣市政府,25.059287,121.562907,特優級,社福機構、集會場所,男廁所,臺北市政府民政局,0
63000,63000020,景新里,A020001369,信義公民會館文物館無障礙,臺北市信義區景新里松勤街50號,縣市政府,25.031592,121.562175,特優級,文化育樂活動場所,無障礙廁所,信義區公所民政課,0
63000,63000080,興昌里,A080000742,臺北市政府公務人員訓練處E區綜合教學樓4F女無障礙,臺北市文山區興昌里萬美街二段21巷20號,縣市政府,25.003422,121.560789,特優級,其他,無障礙廁所,臺北市政府,0
63000,63000080,興昌里,A080000741,臺北市政府公務人員訓練處B區教學2F無障礙,臺北市文山區興昌里萬美街二段21巷20號,縣市政府,25.003422,121.560789,特優級,其他,無障礙廁所,臺北市政府,0
63000,63000080,興昌里,A080000740,臺北市政府公務人員訓練處B區教學1F性別友善,臺北市文山區興昌里萬美街二段21巷20號,縣市政府,25.003422,121.560789,特優級,其他,性別友善廁所,臺北市政府,0
63000,63000090,新光里,A090000342,"City Link 南港店C棟7F女",臺北市南港區新光里忠孝東路七段369號,縣市政府,25.05248914,121.6048765,特優級,商業營業場所,女廁所,"City Link 南港店",0
63000,63000090,新光里,A090000341,"City Link 南港店C棟7F男",臺北市南港區新光里忠孝東路七段369號,縣市政府,25.05245998,121.6048765,特優級,商業營業場所,男廁所,"City Link 南港店",0
63000,63000070,富民里,A070000329,龍山寺地下街西園路B1無障礙,臺北市萬華區富民里西園路一段145號,縣市政府,25.036142,121.499523,特優級,商業營業場所,無障礙廁所,龍山寺地下商場管理中心(中興電工),0
63000,63000070,富民里,A070000328,龍山寺地下街和平西路B1無障礙,臺北市萬華區富民里西園路一段145號,縣市政府,25.036142,121.499523,特優級,商業營業場所,無障礙廁所,龍山寺地下商場管理中心(中興電工),0
63000,63000030,芳和里,A030001255,嘉興公園無障礙,臺北市大安區芳和里樂業街96號,縣市政府,25.02149955,121.5520585,特優級,公園,無障礙廁所,臺北市政府工務局公園路燈工程管理處,0
63000,63000030,芳和里,A030001254,嘉興公園女,臺北市大安區芳和里樂業街96號,縣市政府,25.02146067,121.5520155,特優級,公園,女廁所,臺北市政府工務局公園路燈工程管理處,0
63000,63000030,芳和里,A030001253,嘉興公園男,臺北市大安區芳和里樂業街96號,縣市政府,25.02147039,121.5520424,特優級,公園,男廁所,臺北市政府工務局公園路燈工程管理處,0
63000,63000050,龍福里,A050000565,國稅局中正分局無障礙,臺北市中正區龍福里羅斯福路一段8號3樓,財政部,25.029668,121.520874,特優級,民眾洽公場所,無障礙廁所,財政部臺北國稅局中正分局,0
63000,63000120,清江里,A120000593,聯合醫院陽明院區北投門診部男,臺北市北投區清江里臺北市北投區新市街30號5樓,縣市政府,25.132673,121.502735,特優級,社福機構、集會場所,男廁所,臺北市政府衛生局,0
63000,63000050,板溪里,A050000194,夏慕尼南昌店女,臺北市中正區板溪里南昌路二段112號2樓,縣市政府,25.025838,121.522173,特優級,商業營業場所,女廁所,王品餐飲股份有限公司夏慕尼南昌店,0
63000,63000050,板溪里,A050000193,夏慕尼南昌店男,臺北市中正區板溪里南昌路二段112號2樓,縣市政府,25.025838,121.522173,特優級,商業營業場所,男廁所,王品餐飲股份有限公司夏慕尼南昌店,0
63000,63000040,江寧里,A040000789,中山社福中心女,臺北市中山區江寧里合江街137號3樓,縣市政府,25.061655,121.539332,特優級,民眾洽公場所,女廁所,中山社福中心,1
63000,63000040,江寧里,A040000788,中山社福中心男,臺北市中山區江寧里合江街137號3樓,縣市政府,25.061655,121.539332,特優級,民眾洽公場所,男廁所,中山社福中心,0
63000,63000040,民安里,A040000099,臺北市動產質借處中山分處6F女,臺北市中山區民安里長安西路3號6樓,縣市政府,25.050163,121.521201,特優級,其他,女廁所,臺北市動產質借處中山分處,0
63000,63000040,民安里,A040000098,臺北市動產質借處中山分處6F男,臺北市中山區民安里長安西路3號6樓,縣市政府,25.050163,121.521201,特優級,其他,男廁所,臺北市動產質借處中山分處,0
63000,63000100,湖元里,A100001048,特力和樂內湖店1F無障礙,臺北市內湖區湖元里新湖三路23號,縣市政府,25.06203,121.574169,特優級,商業營業場所,無障礙廁所,特力屋股份有限公司,0
63000,63000100,湖元里,A100001047,特力和樂內湖店1F女,臺北市內湖區湖元里新湖三路23號,縣市政府,25.06228597,121.5742511,特優級,商業營業場所,女廁所,特力屋股份有限公司,0
63000,63000100,湖元里,A100001046,特力和樂內湖店1F男,臺北市內湖區湖元里新湖三路23號,縣市政府,25.06203,121.574169,特優級,商業營業場所,男廁所,特力屋股份有限公司,0
63000,63000100,湖元里,A100001045,CASA精品百貨內湖店2F西無障礙,臺北市內湖區湖元里新湖三路23號,縣市政府,25.06203,121.574169,特優級,商業營業場所,無障礙廁所,中欣實業股份有限公司,0
63000,63000100,湖元里,A100001044,CASA精品百貨內湖店2F西女,臺北市內湖區湖元里新湖三路23號,縣市政府,25.06203,121.574169,特優級,商業營業場所,女廁所,中欣實業股份有限公司,0
63000,63000100,湖元里,A100001043,CASA精品百貨內湖店2F西男,臺北市內湖區湖元里新湖三路23號,縣市政府,25.06203,121.574169,特優級,商業營業場所,男廁所,中欣實業股份有限公司,0
63000,63000100,湖元里,A100001042,CASA精品百貨內湖店2F東無障礙,臺北市內湖區湖元里新湖三路23號,縣市政府,25.06203,121.574169,特優級,商業營業場所,無障礙廁所,中欣實業股份有限公司,0
63000,63000100,內溝里,A100000785,統一超商臺北市瓏馬門市男女,臺北市內湖區內溝里康樂街213號,縣市政府,25.07627037,121.619339,特優級,商業營業場所,混合廁所,統一超商股份有限公司,0
63000,63000050,建國里,A050000870,文化大學大新館4F女,臺北市中正區建國里延平南路127號,教育部,25.038423,121.508621,特優級,文化育樂活動場所,女廁所,行政院教育部,0
63000,63000050,建國里,A050000869,文化大學大新館3F無障礙,臺北市中正區建國里延平南路127號,教育部,25.038423,121.508621,特優級,文化育樂活動場所,無障礙廁所,行政院教育部,0
63000,63000050,建國里,A050000868,文化大學大新館3F男,臺北市中正區建國里延平南路127號,教育部,25.038423,121.508621,特優級,文化育樂活動場所,男廁所,行政院教育部,0
63000,63000050,建國里,A050000867,文化大學大新館2F無障礙,臺北市中正區建國里延平南路127號,教育部,25.038423,121.508621,特優級,文化育樂活動場所,無障礙廁所,行政院教育部,0
63000,63000050,建國里,A050000866,文化大學大新館2F女,臺北市中正區建國里延平南路127號,教育部,25.038423,121.508621,特優級,文化育樂活動場所,女廁所,行政院教育部,0
63000,63000050,建國里,A050000865,文化大學大新館1F無障礙,臺北市中正區建國里延平南路127號,教育部,25.038423,121.508621,特優級,文化育樂活動場所,無障礙廁所,行政院教育部,0
63000,63000050,建國里,A050000864,文化大學大新館1F女,臺北市中正區建國里延平南路127號,教育部,25.038411,121.508694,特優級,文化育樂活動場所,女廁所,行政院教育部,0
63000,63000050,建國里,A050000863,文化大學大新館1F男,臺北市中正區建國里延平南路127號,教育部,25.038423,121.508621,特優級,文化育樂活動場所,男廁所,行政院教育部,0
63000,63000010,美仁里,A010001193,松山運動中心2F無障礙,臺北市松山區美仁里敦化北路1號,縣市政府,25.04863001,121.5503204,特優級,文化育樂活動場所,無障礙廁所,臺北市政府體育局,0
63000,63000110,福佳里,A110000558,天文科學教育館3樓-C男,臺北市士林區基河路363號,縣市政府,25.095783,121.518345,特優級,文化育樂活動場所,男廁所,臺北市政府文化局,0
63000,63000110,福佳里,A110000557,天文科學教育館2樓-F女,臺北市士林區基河路363號,縣市政府,25.095783,121.518345,特優級,文化育樂活動場所,女廁所,臺北市政府文化局,0
63000,63000110,福佳里,A110000556,天文科學教育館2樓-E男,臺北市士林區基河路363號,縣市政府,25.095783,121.518345,特優級,文化育樂活動場所,男廁所,臺北市政府文化局,0
63000,63000110,福佳里,A110000555,天文科學教育館183無障礙,臺北市士林區福佳里基河路363號,臺北市政府教育局,25.095783,121.518345,特優級,文化育樂活動場所,無障礙廁所,天文科學教育館,0
63000,63000110,福佳里,A110000554,天文科學教育館166無障礙,臺北市士林區福佳里基河路363號,臺北市政府教育局,25.095783,121.518345,特優級,文化育樂活動場所,無障礙廁所,天文科學教育館,0
63000,63000070,和德里,A070000769,西園醫院2F無障礙廁,臺北市萬華區和德里西園路二段278號,縣市政府,25.027562,121.494253,特優級,社福機構、集會場所,無障礙廁所,私立西園醫院,0
63000,63000110,永倫里,A110000866,統一超商臺北市洲美門市男女,"臺北市士林區永倫里延平北路六段505號 ",統一超商股份有限公司,25.093133,121.49826,特優級,商業營業場所,混合廁所,統一超商股份有限公司,0
63000,63000050,黎明里,A050001302,臺大醫院國際會議中心東2F男,臺北市中正區黎明里常德街1號,縣市政府,25.041399,121.517172,特優級,社福機構、集會場所,男廁所,國立臺灣大學醫學院附設醫院,0
63000,63000050,黎明里,A050001301,臺大醫院國際會議中心東1F無障礙,臺北市中正區黎明里常德街1號,縣市政府,25.041399,121.517172,特優級,社福機構、集會場所,無障礙廁所,國立臺灣大學醫學院附設醫院,0
63000,63000050,黎明里,A050001300,臺大醫院國際會議中心東1F女,臺北市中正區黎明里常德街1號,縣市政府,25.041399,121.517172,特優級,社福機構、集會場所,女廁所,國立臺灣大學醫學院附設醫院,0
63000,63000050,黎明里,A050001299,臺大醫院國際會議中心東1F男,臺北市中正區黎明里常德街1號,縣市政府,25.041399,121.517172,特優級,社福機構、集會場所,男廁所,國立臺灣大學醫學院附設醫院,0
63000,63000010,福成里,A010001260,臺安醫院新3樓女,臺北市松山區福成里八德路二段424號,縣市政府,25.048052,121.547276,特優級,社福機構、集會場所,女廁所,財團法人基督復臨安息日會台安醫院,0
63000,63000010,福成里,A010001259,臺安醫院新2樓女,臺北市松山區福成里八德路二段424號,縣市政府,25.048052,121.547276,特優級,社福機構、集會場所,女廁所,財團法人基督復臨安息日會台安醫院,0
63000,63000010,福成里,A010001258,臺安醫院新1樓(電梯旁)女,臺北市松山區福成里八德路二段424號,縣市政府,25.048052,121.547276,特優級,社福機構、集會場所,女廁所,財團法人基督復臨安息日會台安醫院,0
63000,63000010,福成里,A010001257,臺安醫院新1樓(電梯旁)男,臺北市松山區福成里八德路二段424號,縣市政府,25.048052,121.547276,特優級,社福機構、集會場所,男廁所,財團法人基督復臨安息日會台安醫院,0
63000,63000010,福成里,A010001256,臺安醫院舊2樓檢驗科女,臺北市松山區福成里八德路二段424號,縣市政府,25.048052,121.547276,特優級,社福機構、集會場所,女廁所,財團法人基督復臨安息日會台安醫院,0
63000,63000010,福成里,A010001255,臺安醫院舊2樓檢驗科男,臺北市松山區福成里八德路二段424號,縣市政府,25.048052,121.547276,特優級,社福機構、集會場所,男廁所,財團法人基督復臨安息日會台安醫院,0
63000,63000030,光武里,A030000409,中心綜合醫院2男,臺北市大安區光武里忠孝東路四段77號,縣市政府,25.041865,121.54733,特優級,社福機構、集會場所,男廁所,中心診所醫療財團法人中心綜合醫院,0
63000,63000030,仁慈里,A030000022,聯合醫院仁愛院區3F女,臺北市大安區仁慈里仁愛路四段10號,縣市政府,25.03754,121.545302,特優級,社福機構、集會場所,女廁所,臺北市政府衛生局,0
63000,63000060,玉泉里,A060000047,聯合醫院中興院區3B-2廁所,臺北市大同區玉泉里鄭州路145號,縣市政府,25.050692,121.508887,特優級,社福機構、集會場所,女廁所,臺北市政府衛生局,0
63000,63000060,玉泉里,A060000046,聯合醫院中興院區3B-1廁所,臺北市大同區玉泉里鄭州路145號,縣市政府,25.050692,121.508887,特優級,社福機構、集會場所,男廁所,臺北市政府衛生局,0
63000,63000060,玉泉里,A060000045,聯合醫院中興院區3A-2廁所,臺北市大同區玉泉里鄭州路145號,縣市政府,25.050692,121.508887,特優級,社福機構、集會場所,女廁所,臺北市政府衛生局,0
63000,63000060,玉泉里,A060000044,聯合醫院中興院區3A-1廁所,臺北市大同區玉泉里鄭州路145號,縣市政府,25.050692,121.508887,特優級,社福機構、集會場所,男廁所,臺北市政府衛生局,0
63000,63000060,玉泉里,A060000043,聯合醫院中興院區2B-3廁所,臺北市大同區玉泉里鄭州路145號,縣市政府,25.050692,121.508887,特優級,社福機構、集會場所,無障礙廁所,臺北市政府衛生局,0
63000,63000060,玉泉里,A060000042,聯合醫院中興院區B1-4女,臺北市大同區玉泉里鄭州路145號,縣市政府,25.050692,121.508887,特優級,社福機構、集會場所,女廁所,臺北市政府衛生局,0
63000,63000110,岩山里,A110000968,聯合醫院陽明院區2-1女廁所,臺北市士林區岩山里雨聲街105號,臺北市政府衛生局,25.105194,121.531566,特優級,社福機構、集會場所,女廁所,臺北市政府衛生局,0
63000,63000100,湖興里,A100000926,防災科學教育館4F男,臺北市內湖區湖興里成功路二段376號,縣市政府,25.0695,121.5904,特優級,文化育樂活動場所,男廁所,防災科學教育館,0
63000,63000100,湖興里,A100000925,防災科學教育館4F女,臺北市內湖區湖興里成功路二段376號,縣市政府,25.0695,121.5904,特優級,文化育樂活動場所,女廁所,防災科學教育館,0
63000,63000100,湖興里,A100000924,防災科學教育館3F男,臺北市內湖區湖興里成功路二段376號,縣市政府,25.0695,121.5904,特優級,文化育樂活動場所,男廁所,防災科學教育館,0
63000,63000100,湖興里,A100000923,防災科學教育館3F女,臺北市內湖區湖興里成功路二段376號,縣市政府,25.0695,121.5904,特優級,文化育樂活動場所,女廁所,防災科學教育館,0
63000,63000100,湖興里,A100000922,防災科學教育館2F男,臺北市內湖區湖興里成功路二段376號,縣市政府,25.0695,121.5904,特優級,文化育樂活動場所,男廁所,防災科學教育館,0
63000,63000100,湖興里,A100000921,防災科學教育館2F女,臺北市內湖區湖興里成功路二段376號,縣市政府,25.0695,121.5904,特優級,文化育樂活動場所,女廁所,防災科學教育館,0
63000,63000100,湖興里,A100000920,防災科學教育館1F男,臺北市內湖區湖興里成功路二段376號,縣市政府,25.0695,121.5904,特優級,文化育樂活動場所,男廁所,防災科學教育館,0
63000,63000100,湖興里,A100000919,防災科學教育館1F女,臺北市內湖區湖興里成功路二段376號,縣市政府,25.0695,121.5904,特優級,文化育樂活動場所,女廁所,防災科學教育館,0
63000,63000080,萬和里,A080000311,臺北市立圖書館景美分館2F無障礙,臺北市文山區萬和里羅斯福路五段176巷50號,縣市政府,25.003893,121.536554,特優級,其他,無障礙廁所,臺北市立圖書館,1
63000,63000070,日善里,A070000716,臺北市立圖書館萬華分館7F女,臺北市萬華區日善里東園街19號5樓,縣市政府,25.027905,121.495654,特優級,文化育樂活動場所,女廁所,臺北市立圖書館,0
63000,63000110,福順里,A110000808,臺北市立圖書館葫蘆堵分館7F無障礙,"臺北市士林區福順里延平北路五段136巷1號 ",臺北市政府教育局,25.082284,121.51075,特優級,文化育樂活動場所,無障礙廁所,臺北市立圖書館,0
63000,63000110,福順里,A110000807,臺北市立圖書館葫蘆堵分館6F無障礙,"臺北市士林區福順里延平北路五段136巷1號 ",臺北市政府教育局,25.082284,121.51075,特優級,文化育樂活動場所,無障礙廁所,臺北市立圖書館,0
63000,63000110,福順里,A110000806,臺北市立圖書館葫蘆堵分館5F無障礙,臺北市士林區延平北路5段136巷1號5樓,縣市政府,25.082284,121.51075,特優級,,無障礙廁所,臺北市立圖書館,0
63000,63000110,福順里,A110000805,臺北市立圖書館葫蘆堵分館4F無障礙,"臺北市士林區福順里延平北路五段136巷1號 ",臺北市政府教育局,25.082284,121.51075,特優級,文化育樂活動場所,無障礙廁所,臺北市立圖書館,0
63000,63000010,中華里,A010000399,臺北市立圖書館啟明分館4F女,臺北市松山區中華里敦化北路155巷76號,縣市政府,25.05451077,121.5515156,特優級,文化育樂活動場所,女廁所,臺北市立圖書館,0
63000,63000010,中華里,A010000398,臺北市立圖書館啟明分館4F男,臺北市松山區中華里敦化北路155巷76號,縣市政府,25.054319,121.551475,特優級,文化育樂活動場所,男廁所,臺北市立圖書館,0
63000,63000010,中華里,A010000397,臺北市立圖書館啟明分館3F女,臺北市松山區中華里敦化北路155巷76號,縣市政府,25.054319,121.551475,特優級,文化育樂活動場所,女廁所,臺北市立圖書館,0
63000,63000010,中華里,A010000396,臺北市立圖書館啟明分館3F男,臺北市松山區中華里敦化北路155巷76號,縣市政府,25.054319,121.551475,特優級,文化育樂活動場所,男廁所,臺北市立圖書館,0
63000,63000010,中華里,A010000395,臺北市立圖書館啟明分館2F女,臺北市松山區中華里敦化北路155巷76號,縣市政府,25.054319,121.551475,特優級,文化育樂活動場所,女廁所,臺北市立圖書館,0
63000,63000040,民安里,A040000055,新光三越台北南西店2樓女,臺北市中山區民安里南京西路12號,縣市政府,25.052326,121.521244,特優級,商業營業場所,女廁所,新光三越百貨(南京店),1
63000,63000060,光能里,A060000336,中山地下街M14男,臺北市大同區光能里南京西路16號地下街,縣市政府,25.052433,121.520664,特優級,商業營業場所,男廁所,中山地下街,0
63000,63000060,光能里,A060000335,中山地下街M14女,臺北市大同區光能里南京西路16號地下街,縣市政府,25.052433,121.520664,特優級,商業營業場所,女廁所,中山地下街,0
63000,63000060,光能里,A060000334,中山地下街M13男,臺北市大同區光能里南京西路16號地下街,縣市政府,25.052433,121.520664,特優級,商業營業場所,男廁所,中山地下街,0
63000,63000060,光能里,A060000333,中山地下街M13女,臺北市大同區光能里南京西路16號地下街,縣市政府,25.05220849,121.5208577,特優級,商業營業場所,女廁所,中山地下街,0
63000,63000110,三玉里,A110001156,大葉高島屋百貨蘭雅國中旁B1親子,臺北市士林區忠誠路二段55號,縣市政府,25.11181,121.531437,特優級,,親子廁所,大葉高島屋百貨公司,0
63000,63000110,三玉里,A110001155,大葉高島屋百貨蘭雅國中旁1樓親子,臺北市士林區忠誠路二段55號,縣市政府,25.11181,121.531437,特優級,,親子廁所,大葉高島屋百貨公司,0
63000,63000050,建國里,A050000622,遠東百貨(寶慶遠百)8FA區男,臺北市中正區寶慶路32號,縣市政府,25.041688,121.509114,特優級,,男廁所,遠東百貨(寶慶店),0
63000,63000050,建國里,A050000621,遠東百貨(寶慶遠百)8FA區女,臺北市中正區寶慶路32號,縣市政府,25.041688,121.509114,特優級,,女廁所,遠東百貨(寶慶店),0
63000,63000050,建國里,A050000620,遠東百貨(寶慶遠百)7FA區男,臺北市中正區寶慶路32號,縣市政府,25.041688,121.509114,特優級,,男廁所,遠東百貨(寶慶店),0
63000,63000050,林興里,A050000113,古亭河濱公園男,臺北市中正區林興里同安街底永福橋至中正橋間,縣市政府,25.026388,121.522561,特優級,公園,男廁所,臺北市政府工務局公園路燈工程管理處,0
63000,63000110,福林里,A110000107,雙溪公園無障礙,臺北市士林區福林里福林路、至善路口東南側,臺北市政府工務局公園路燈工程管理處,25.094587,121.530248,特優級,公園,無障礙廁所,臺北市政府工務局公園路燈工程管理處,0
63000,63000110,福佳里,A110000439,美崙公園女,臺北市士林區福佳里美崙街152巷,臺北市政府工務局公園路燈工程管理處,25.09716139,121.5176725,特優級,公園,女廁所,臺北市政府工務局公園路燈工程管理處,0
63000,63000120,中心里,A120000795,北投七星公園(233)女,臺北市北投區中心里臺北市北投區七星街3號,縣市政府,25.136648,121.502123,特優級,公園,女廁所,臺北市政府工務局公園路燈工程管理處,0
63000,63000120,中心里,A120000794,北投七星公園(233)男,臺北市北投區中心里臺北市北投區七星街3號,縣市政府,25.13640257,121.5028667,特優級,公園,男廁所,臺北市政府工務局公園路燈工程管理處,0
63000,63000080,興業里,A080000576,興隆公園男女,臺北市文山區興業里文山區仙岩路128號,縣市政府,25.000705,121.551323,特優級,公園,混合廁所,臺北市政府工務局公園路燈工程管理處,1
63000,63000100,湖濱里,A100000423,碧湖公園圖書館內男廁,"臺北市內湖區湖濱里內湖路二段175號 ",縣市政府,25.08190158,121.5837649,特優級,公園,男廁所,臺北市政府工務局公園路燈工程管理處,0
63000,63000040,成功里,A040000549,永直公園男女,臺北市中山區成功里北安路608巷4弄底,縣市政府,25.081911,121.549291,特優級,公園,混合廁所,臺北市政府工務局公園路燈工程管理處,1
63000,63000080,萬芳里,A080001226,萬芳公園無障礙,臺北市文山區萬芳里文山區萬和街2號旁,縣市政府,25.001546,121.567892,特優級,公園,無障礙廁所,臺北市政府工務局公園路燈工程管理處,0
63000,63000010,民有里,A010000419,摩斯漢堡西華店男女,臺北市松山區民有里民生東路三段113巷7弄1號,縣市政府,25.058568,121.546387,特優級,商業營業場所,混合廁所,安心食品服務股份有限公司西華分公司,0
63000,63000010,吉祥里,A010000656,摩斯漢堡吉祥店男女,臺北市松山區吉祥里吉祥路59號,縣市政府,25.050477,121.562642,特優級,商業營業場所,混合廁所,安心食品服務股份有限公司,0
63000,63000040,新福里,A040000645,麥當勞台北民權二店男,臺北市中山區新福里民權東路二段43號1-2樓,縣市政府,25.062759,121.530471,特優級,商業營業場所,男廁所,台灣麥當勞餐廳股份有限公司,0
63000,63000020,西村里,A020000238,新光三越台北信義新天地A9館西北8樓女,臺北市信義區西村里松壽路9號,縣市政府,25.036082,121.566661,特優級,商業營業場所,女廁所,新光三越百貨股份有限公司,1
63000,63000020,三張里,A020001437,信義運動中心2F無障礙,臺北市信義區三張里松勤街100號,縣市政府,25.031804,121.566756,特優級,文化育樂活動場所,無障礙廁所,全越運動事業股份有限公司,0
63000,63000020,三張里,A020001436,信義運動中心3F無障礙,臺北市信義區三張里松勤街100號,縣市政府,25.031908,121.566604,特優級,文化育樂活動場所,無障礙廁所,全越運動事業股份有限公司,0
63000,63000020,三張里,A020001435,信義運動中心6F無障礙,臺北市信義區三張里松勤街100號,縣市政府,25.031908,121.566604,特優級,文化育樂活動場所,無障礙廁所,全越運動事業股份有限公司,0
63000,63000040,民安里,A040000076,誠品生活南西店4樓親子,臺北市中山區民安里南京西路14號,縣市政府,25.052433,121.520664,特優級,商業營業場所,親子廁所,誠品生活股份有限公司,1
63000,63000040,民安里,A040000075,誠品生活南西店4樓女,臺北市中山區民安里南京西路14號,縣市政府,25.052433,121.520664,特優級,商業營業場所,女廁所,誠品生活股份有限公司,0
63000,63000080,景仁里,A080000161,全國景美加油站女,臺北市文山區景仁里文山區羅斯福路六段140號,縣市政府,24.996282,121.540696,特優級,商業營業場所,女廁所,全國加油站股份有限公司,0
63000,63000060,光能里,A060000325,建成公園地下停車場無障礙,臺北市大同區光能里承德路二段31號,縣市政府,25.054122,121.518102,特優級,交通,無障礙廁所,臺北市停車管理工程處,0
63000,63000040,朱園里,A040001079,袖珍博物館男女,臺北市中山區朱園里'建國北路一段96號B1,縣市政府,25.050356,121.536302,特優級,文化育樂活動場所,混合廁所,袖珍博物館,0
63000,63000050,龍福里,A050000534,郵政博物館5樓女,臺北市中正區龍福里重慶南路二段45號,交通部,25.03158,121.51476,特優級,文化育樂活動場所,女廁所,中華郵政股份有限公司,0
63000,63000050,龍福里,A050000533,郵政博物館5樓男,臺北市中正區龍福里重慶南路二段45號,交通部,25.03158,121.51476,特優級,文化育樂活動場所,男廁所,中華郵政股份有限公司,0
63000,63000050,龍福里,A050000532,郵政博物館4樓女,臺北市中正區龍福里重慶南路二段45號,交通部,25.03158,121.51476,特優級,文化育樂活動場所,女廁所,中華郵政股份有限公司,0
63000,63000080,木新里,A080001124,臺北市立圖書館木柵分館4F無障礙,臺北市文山區木新里文山區保儀路13巷3號,縣市政府,24.988496,121.569186,特優級,其他,無障礙廁所,臺北市立圖書館,1
63000,63000020,大仁里,A020001613,信義區公所11F男廁,臺北市信義區大仁里信義區福德街86號9樓,縣市政府,25.037725,121.581973,特優級,民眾洽公場所,男廁所,臺北市政府,0
63000,63000020,大仁里,A020001612,信義區公所10F無障礙,臺北市信義區大仁里信義區福德街86號9樓,縣市政府,25.037725,121.581973,特優級,民眾洽公場所,無障礙廁所,臺北市政府,0
63000,63000020,大仁里,A020001611,信義區公所10F女廁,臺北市信義區大仁里信義區福德街86號9樓,縣市政府,25.037725,121.581973,特優級,民眾洽公場所,女廁所,臺北市政府,0
63000,63000020,大仁里,A020001610,信義區公所10F男廁,臺北市信義區大仁里信義區福德街86號9樓,縣市政府,25.037725,121.581973,特優級,民眾洽公場所,男廁所,臺北市政府,0
63000,63000020,大仁里,A020001609,信義區公所9F無障礙,臺北市信義區大仁里信義區福德街86號9樓,縣市政府,25.037725,121.581973,特優級,民眾洽公場所,無障礙廁所,臺北市政府,0
63000,63000020,大仁里,A020001608,信義區公所9F女廁,臺北市信義區大仁里信義區福德街86號9樓,縣市政府,25.037725,121.581973,特優級,民眾洽公場所,女廁所,臺北市政府,0
63000,63000020,大仁里,A020001607,信義區公所9F男廁,臺北市信義區大仁里信義區福德街86號9樓,縣市政府,25.037725,121.581973,特優級,民眾洽公場所,男廁所,臺北市政府,0
63000,63000020,大仁里,A020001606,信義區公所8F無障礙,臺北市信義區大仁里信義區福德街86號9樓,縣市政府,25.037725,121.581973,特優級,民眾洽公場所,無障礙廁所,臺北市政府,0
63000,63000020,大仁里,A020001605,信義區公所8F女廁,臺北市信義區大仁里信義區福德街86號9樓,縣市政府,25.037725,121.581973,特優級,民眾洽公場所,女廁所,臺北市政府,0
63000,63000020,大仁里,A020001604,信義區公所8F男廁,臺北市信義區大仁里信義區福德街86號9樓,縣市政府,25.037725,121.581973,特優級,民眾洽公場所,男廁所,臺北市政府,0
63000,63000060,國慶里,A060000885,延平國小地下停車場B1親子,臺北市大同區國慶里昌吉街97號,縣市政府,25.06693871,121.5119433,特優級,交通,親子廁所,歐特儀股份有限公司延平地下停車場,0
63000,63000060,國慶里,A060000884,延平國小地下停車場B1女,臺北市大同區國慶里昌吉街97號,縣市政府,25.06691927,121.5119433,特優級,交通,女廁所,歐特儀股份有限公司延平地下停車場,0
63000,63000060,國慶里,A060000883,延平國小地下停車場B1男,臺北市大同區國慶里昌吉街97號,縣市政府,25.06603,121.512362,特優級,交通,男廁所,歐特儀股份有限公司延平地下停車場,0
63000,63000090,三重里,A090000791,捷運南港展覽館站板南線站外女廁,臺北市南港區三重里研究院路一段1號,縣市政府,25.05533,121.617622,特優級,交通,女廁所,臺北大眾捷運股份有限公司,0
63000,63000090,三重里,A090000790,捷運南港展覽館站板南線站外男廁,臺北市南港區三重里研究院路一段1號,縣市政府,25.05533,121.617622,特優級,交通,男廁所,臺北大眾捷運股份有限公司,0
63000,63000110,後港里,A110002023,士林監理站1F無障礙,臺北市士林區後港里承德路五段80號,交通部,25.094632,121.514231,特優級,民眾洽公場所,無障礙廁所,交通部公路總局,0
63000,63000020,大仁里,A020001595,信義區公所4F無障礙,臺北市信義區大仁里信義區福德街86號9樓,縣市政府,25.037725,121.581973,特優級,民眾洽公場所,無障礙廁所,臺北市政府,0
63000,63000020,大仁里,A020001594,信義區公所4F女廁,臺北市信義區大仁里信義區福德街86號9樓,縣市政府,25.037725,121.581973,特優級,民眾洽公場所,女廁所,臺北市政府,0
63000,63000020,大仁里,A020001593,信義區公所4F男廁,臺北市信義區大仁里福德街86號9樓,縣市政府,25.037725,121.581973,特優級,民眾洽公場所,男廁所,臺北市政府,0
63000,63000020,大仁里,A020001592,信義區公所3F無障礙,臺北市信義區大仁里信義區福德街86號9樓,縣市政府,25.037725,121.581973,特優級,民眾洽公場所,無障礙廁所,臺北市政府,0
63000,63000020,大仁里,A020001591,信義區公所3F女廁,臺北市信義區大仁里信義區福德街86號9樓,縣市政府,25.037725,121.581973,特優級,民眾洽公場所,女廁所,臺北市政府,0
63000,63000090,中南里,A090000754,環球購物中心南港車站店B2女無障礙(東),臺北市南港區中南里忠孝東路七段371號,交通部,25.052571,121.607496,特優級,商業營業場所,無障礙廁所,冠樺生活股份有限公司,0
63000,63000090,中南里,A090000753,環球購物中心南港車站店B2女廁(東),臺北市南港區中南里忠孝東路七段371號,交通部,25.052571,121.607496,特優級,商業營業場所,女廁所,冠樺生活股份有限公司,0
63000,63000090,中南里,A090000752,環球購物中心南港車站店B2男無障礙(東),臺北市南港區中南里忠孝東路七段371號,交通部,25.052571,121.607496,特優級,商業營業場所,無障礙廁所,冠樺生活股份有限公司,0
63000,63000090,中南里,A090000751,環球購物中心南港車站店B2男廁(東),臺北市南港區中南里忠孝東路七段371號,交通部,25.052571,121.607496,特優級,商業營業場所,男廁所,冠樺生活股份有限公司,0
63000,63000090,中南里,A090000750,環球購物中心南港車站店B1無障礙(東),臺北市南港區中南里忠孝東路七段371號,交通部,25.052571,121.607496,特優級,商業營業場所,無障礙廁所,冠樺生活股份有限公司,0
63000,63000090,中南里,A090000749,環球購物中心南港車站店B1女廁(東),臺北市南港區中南里忠孝東路七段371號,交通部,25.052571,121.607496,特優級,商業營業場所,女廁所,冠樺生活股份有限公司,0
63000,63000100,安湖里,A100001473,東湖立體停車場3F男,臺北市內湖區安湖里東湖路3號,縣市政府,25.069693,121.61224,特優級,交通,男廁所,正好停股份有限公司東湖立體停車場,0
63000,63000090,東明里,A090000735,臺北流行音樂中心6F文化館女廁,臺北市南港區東明里市民大道八段99號,縣市政府,25.052638,121.598507,特優級,文化育樂活動場所,女廁所,臺北流行音樂中心,0
63000,63000090,東明里,A090000734,臺北流行音樂中心6F文化館男廁,臺北市南港區東明里市民大道八段99號,縣市政府,25.052638,121.598507,特優級,文化育樂活動場所,男廁所,臺北流行音樂中心,0
63000,63000090,東明里,A090000733,臺北流行音樂中心5F文化館女廁,臺北市南港區東明里市民大道八段99號,縣市政府,25.052638,121.598507,特優級,文化育樂活動場所,女廁所,臺北流行音樂中心,0
63000,63000090,東明里,A090000732,臺北流行音樂中心5F文化館男廁,臺北市南港區東明里市民大道八段99號,縣市政府,25.052638,121.598507,特優級,文化育樂活動場所,男廁所,臺北流行音樂中心,0
63000,63000090,東明里,A090000731,臺北流行音樂中心4F文化館親子無障礙廁所,臺北市南港區東明里市民大道八段99號,縣市政府,25.052638,121.598507,特優級,文化育樂活動場所,親子廁所,臺北流行音樂中心,0
63000,63000090,東明里,A090000730,臺北流行音樂中心4F文化館女廁,臺北市南港區東明里市民大道八段99號,縣市政府,25.052638,121.598507,特優級,文化育樂活動場所,女廁所,臺北流行音樂中心,0
63000,63000030,黎和里,A030001949,富陽自然生態公園無障礙,臺北市大安區黎和里臥龍街272巷,縣市政府,25.01670898,121.5573558,特優級,公園,無障礙廁所,臺北市政府工務局公園路燈工程管理處,0
63000,63000030,黎和里,A030001948,富陽自然生態公園女廁,臺北市大安區黎和里臥龍街272巷,縣市政府,25.01662877,121.5574122,特優級,公園,女廁所,臺北市政府工務局公園路燈工程管理處,0
63000,63000040,民安里,A040001344,公有中山市場1樓電梯無障礙,臺北市中山區民安里臺北市中山區長安西路3號t,縣市政府,25.050163,121.521201,特優級,商業營業場所,無障礙廁所,臺北市市場處,1
63000,63000040,民安里,A040001343,公有中山市場1樓電梯旁女廁,臺北市中山區民安里長安西路3號,縣市政府,25.050163,121.521201,特優級,商業營業場所,女廁所,臺北市市場處,0
63000,63000040,力行里,A040001342,朱崙公園無障礙,臺北市中山區力行里'龍江路45巷,縣市政府,25.04942261,121.5422483,特優級,公園,無障礙廁所,臺北市政府工務局公園路燈工程管理處,1
63000,63000040,中吉里,A040001341,一江公園無障礙,臺北市中山區中吉里'一江街及松江路146號邊,縣市政府,25.05324725,121.5312445,特優級,公園,無障礙廁所,臺北市政府工務局公園路燈工程管理處,1
63000,63000040,行仁里,A040001340,榮星公園3號無障礙,臺北市中山區行仁里'民權東路三段1號,縣市政府,25.06346679,121.5389156,特優級,公園,無障礙廁所,臺北市政府工務局公園路燈工程管理處,1
63000,63000040,劍潭里,A040001354,國民革命忠烈祠親子,臺北市中山區劍潭里'北安路139號,國防部,25.078375,121.533118,特優級,觀光地區及風景區,親子廁所,全民防衛動員署後備指揮部,1
63000,63000040,劍潭里,A040001353,國民革命忠烈祠無障礙,臺北市中山區劍潭里'北安路139號,國防部,25.078375,121.533118,特優級,觀光地區及風景區,無障礙廁所,全民防衛動員署後備指揮部,0
63000,63000120,榮華里,A120001338,臺北市立圖書館石牌分館5F無障礙,臺北市北投區榮華里明德路208巷5號,縣市政府,25.113163,121.522702,特優級,文化育樂活動場所,無障礙廁所,臺北市立圖書館,0
63000,63000120,榮華里,A120001337,臺北市立圖書館石牌分館4F無障礙,臺北市北投區榮華里臺北市北投區明德路208巷5號,縣市政府,25.113163,121.522702,特優級,文化育樂活動場所,無障礙廁所,臺北市立圖書館,0
63000,63000120,榮華里,A120001336,臺北市立圖書館石牌分館3F無障礙,臺北市北投區榮華里臺北市北投區明德路208巷5號,縣市政府,25.113163,121.522702,特優級,文化育樂活動場所,無障礙廁所,臺北市立圖書館,0
63000,63000120,八仙里,A120001296,車容坊大業加油站女廁,臺北市北投區八仙里臺北市北投區大度路2號,縣市政府,25.121549,121.498517,特優級,商業營業場所,女廁所,車容坊股份有限公司,0
63000,63000120,八仙里,A120001295,關渡大業路加油站無障礙,臺北市北投區八仙里臺北市北投區大業路157號,縣市政府,25.124483,121.498678,特優級,商業營業場所,無障礙廁所,富叡股份有限公司,0
63000,63000120,八仙里,A120001294,關渡大業路加油站女廁,臺北市北投區八仙里臺北市北投區大業路157號,縣市政府,25.12463009,121.4984733,特優級,商業營業場所,女廁所,富叡股份有限公司,0
63000,63000120,八仙里,A120001293,台灣中油北投加油站無障礙,臺北市北投區八仙里臺北市北投區承德路七段384號,經濟部,25.119297,121.502264,特優級,商業營業場所,無障礙廁所,台灣中油股份有限公司,0
63000,63000120,八仙里,A120001292,台灣中油北投加油站女廁,臺北市北投區八仙里臺北市北投區承德路七段384號,經濟部,25.119297,121.502264,特優級,商業營業場所,女廁所,台灣中油股份有限公司,0
63000,63000120,立農里,A120001291,立農公園地下停車場無障礙,臺北市北投區立農里臺北市北投區承德路七段372號,縣市政府,25.11852,121.503331,特優級,交通,無障礙廁所,臺北市停車管理工程處,0
63000,63000120,吉利里,A120001290,石牌公園無障礙,臺北市北投區吉利里臺北市北投區石牌路一段39巷,縣市政府,25.11630998,121.5103287,特優級,公園,無障礙廁所,臺北市政府工務局公園路燈工程管理處,0
63000,63000080,萬興里,A080001428,臺北市立動物園16號澳洲區無障礙,臺北市文山區萬興里文山區新光路二段30號,縣市政府,24.99500445,121.5864122,特優級,文化育樂活動場所,無障礙廁所,臺北市政府教育局,1
63000,63000080,萬興里,A080001427,臺北市立動物園15號河馬廣場無障礙,臺北市文山區萬興里文山區新光路二段30號,縣市政府,24.99501417,121.5863693,特優級,文化育樂活動場所,無障礙廁所,臺北市政府教育局,1
63000,63000080,萬興里,A080001426,臺北市立動物園15號河馬廣場女,臺北市文山區萬興里文山區新光路二段30號,縣市政府,24.99500445,121.5864122,特優級,文化育樂活動場所,女廁所,臺北市政府教育局,1
63000,63000080,萬興里,A080001425,臺北市立動物園14號雨林區親子廁所,臺北市文山區萬興里文山區新光路二段30號,縣市政府,24.99499472,121.58638,特優級,文化育樂活動場所,親子廁所,臺北市政府教育局,1
63000,63000080,萬興里,A080001424,臺北市立動物園14號雨林區女,臺北市文山區萬興里文山區新光路二段30號,縣市政府,24.994985,121.5863907,特優級,文化育樂活動場所,女廁所,臺北市政府教育局,0
63000,63000080,萬興里,A080001423,臺北市立動物園13號綠野仙蹤區男,臺北市文山區萬興里文山區新光路二段30號,縣市政府,24.99500445,121.5864122,特優級,文化育樂活動場所,男廁所,臺北市政府教育局,0
63000,63000080,萬興里,A080001422,臺北市立動物園13號綠野仙蹤區無障礙,臺北市文山區萬興里文山區新光路二段30號,縣市政府,24.99495583,121.5864229,特優級,文化育樂活動場所,無障礙廁所,臺北市政府教育局,0
63000,63000070,西門里,A070000243,西門紅樓性別友善,臺北市萬華區西門里成都路10號,縣市政府,25.04205,121.506905,特優級,文化育樂活動場所,性別友善廁所,財團法人台北市文化基金會西門紅樓暨電影主題公園,0
63000,63000080,指南里,A080001511,指南宮後殿男,臺北市文山區指南里文山區萬壽路115號,縣市政府,24.979863,121.586631,特優級,宗教禮儀場所,男廁所,指南宮,0
63000,63000080,指南里,A080001510,指南宮女,臺北市文山區指南里文山區萬壽路115號,縣市政府,24.979863,121.586631,特優級,宗教禮儀場所,女廁所,指南宮,0
63000,63000080,指南里,A080001509,指南宮男,臺北市文山區指南里文山區萬壽路115號,縣市政府,24.979863,121.586631,特優級,宗教禮儀場所,男廁所,指南宮,0
63000,63000080,萬芳里,A080001231,慈光寺2F混合廁,臺北市文山區萬芳里文山區萬芳路26巷5號,縣市政府,24.995332,121.569146,特優級,宗教禮儀場所,混合廁所,慈光寺,0
63000,63000100,湖元里,A100000945,臺北花卉批發市場A7女,臺北市內湖區湖元里新湖三路28號至36號,縣市政府,25.063773,121.576713,特優級,商業營業場所,女廁所,臺北市市場處,0
63000,63000080,順興里,A080001144,木柵忠順廟男,臺北市文山區順興里文山區中崙路13號,縣市政府,24.983608,121.564626,特優級,宗教禮儀場所,男廁所,財團法人台北市木柵忠順廟,0
63000,63000070,萬壽里,A070000074,麥當勞台北昆明店男,臺北市萬華區萬壽里昆明街92-4號,縣市政府,25.044826,121.505235,特優級,商業營業場所,男廁所,台灣麥當勞餐廳股份有限公司,0
63000,63000070,萬壽里,A070000073,頂呱呱西門店2F男女,臺北市萬華區萬壽里昆明街92-2號,縣市政府,25.04456557,121.5047057,特優級,其他,混合廁所,頂呱呱國際股份有限公司,0
63000,63000070,和德里,A070000758,拿坡里西園店性別友善,臺北市萬華區和德里西園路二段244號,縣市政府,25.028123,121.494908,特優級,其他,性別友善廁所,拿坡里股份有限公司,0
63000,63000030,住安里,A030000969,捷運大安站淡水信義線連通層女,臺北市大安區住安里信義路三段180號,縣市政府,25.033128,121.544002,特優級,交通,女廁所,臺北大眾捷運股份有限公司,0
63000,63000090,新富里,A090000112,麥當勞台北研究院店男女,臺北市南港區新富里研究院路一段99號,縣市政府,25.052305,121.616372,特優級,商業營業場所,混合廁所,台灣麥當勞餐廳股份有限公司,0
63000,63000090,西新里,A090000393,三商巧福南港店男女,臺北市南港區西新里南港路三段7號,縣市政府,25.054015,121.592046,特優級,商業營業場所,混合廁所,三商行股份有限公司,0
63000,63000070,富福里,A070000427,康定路派出所男女,臺北市萬華區富福里和平西路三段112號,縣市政府,25.035102,121.500401,特優級,民眾洽公場所,混合廁所,臺北市政府警察局萬華分局,0
63000,63000070,富福里,A070000426,建成地政事務所9F女,臺北市萬華區富福里和平西路三段120號9樓,縣市政府,25.035011,121.499812,特優級,民眾洽公場所,女廁所,臺北市政府地政局,0
63000,63000070,富福里,A070000425,建成地政事務所9F男,臺北市萬華區富福里和平西路三段120號9樓,縣市政府,25.035011,121.499812,特優級,民眾洽公場所,男廁所,臺北市政府地政局,0
63000,63000070,富福里,A070000424,建成地政事務所8F女,臺北市萬華區富福里和平西路三段120號8樓,縣市政府,25.035011,121.499812,特優級,民眾洽公場所,女廁所,臺北市政府地政局,0
63000,63000070,富福里,A070000423,建成地政事務所8F男,臺北市萬華區富福里和平西路三段120號8樓,縣市政府,25.035011,121.499812,特優級,民眾洽公場所,男廁所,臺北市政府地政局,0
63000,63000070,富福里,A070000414,萬華區公所11F女,臺北市萬華區富福里和平西路三段120號10樓,縣市政府,25.035011,121.499812,特優級,民眾洽公場所,女廁所,臺北市政府,0
63000,63000070,富福里,A070000413,萬華區公所11F男,臺北市萬華區富福里和平西路三段120號10樓,縣市政府,25.035011,121.499812,特優級,民眾洽公場所,男廁所,臺北市政府,0
63000,63000070,富福里,A070000412,萬華區公所10F女,臺北市萬華區富福里和平西路三段120號10樓,縣市政府,25.035011,121.499812,特優級,民眾洽公場所,女廁所,臺北市政府,0
63000,63000070,富福里,A070000411,萬華區公所10F男,臺北市萬華區富福里和平西路三段120號10樓,縣市政府,25.034816,121.499739,特優級,民眾洽公場所,男廁所,臺北市政府,0
63000,63000070,富福里,A070000408,萬華區戶政事務所4F女,臺北市萬華區富福里和平西路三段120號4樓,縣市政府,25.035011,121.499812,特優級,民眾洽公場所,女廁所,臺北市政府民政局,0
63000,63000070,富福里,A070000407,萬華區戶政事務所4F男,臺北市萬華區富福里和平西路三段120號4樓,縣市政府,25.035011,121.499812,特優級,民眾洽公場所,男廁所,臺北市政府民政局,0
63000,63000070,富福里,A070000406,臺北市動產質借處龍山分處5F女,臺北市萬華區富福里和平西路三段120號5樓,縣市政府,25.03491751,121.4998224,特優級,民眾洽公場所,女廁所,臺北市動產質借處龍山分處,0
63000,63000070,富福里,A070000405,臺北市動產質借處龍山分處5F男,臺北市萬華區富福里和平西路三段120號5樓,縣市政府,25.03490293,121.4998278,特優級,民眾洽公場所,男廁所,臺北市動產質借處龍山分處,0
63000,63000050,梅花里,A050001420,臺北市稅捐稽徵總處西4F女,臺北市中正區梅花里北平東路7-2號,縣市政府,25.046752,121.523009,特優級,民眾洽公場所,女廁所,臺北市政府財政局,0
63000,63000050,梅花里,A050001419,臺北市稅捐稽徵總處西3F女,臺北市中正區梅花里北平東路7-2號,縣市政府,25.046752,121.523009,特優級,民眾洽公場所,女廁所,臺北市政府財政局,0
63000,63000050,梅花里,A050001418,臺北市稅捐稽徵總處西2F女,臺北市中正區梅花里北平東路7-2號,縣市政府,25.046752,121.523009,特優級,民眾洽公場所,女廁所,臺北市政府財政局,0
63000,63000050,梅花里,A050001417,臺北市稅捐稽徵總處西2F男,臺北市中正區梅花里北平東路7-2號,縣市政府,25.046752,121.523009,特優級,民眾洽公場所,男廁所,臺北市政府財政局,0
63000,63000050,梅花里,A050001416,臺北市稅捐稽徵總處西1F女,臺北市中正區梅花里北平東路7-2號,縣市政府,25.046752,121.523009,特優級,民眾洽公場所,女廁所,臺北市政府財政局,0
63000,63000050,梅花里,A050001415,臺北市稅捐稽徵總處東5F女,臺北市中正區梅花里北平東路7-2號,縣市政府,25.046752,121.523009,特優級,民眾洽公場所,女廁所,臺北市政府財政局,0
63000,63000050,梅花里,A050001414,臺北市稅捐稽徵總處東5F男,臺北市中正區梅花里北平東路7-2號,縣市政府,25.046752,121.523009,特優級,民眾洽公場所,男廁所,臺北市政府財政局,0
63000,63000050,梅花里,A050001413,臺北市稅捐稽徵總處東4F女,臺北市中正區梅花里北平東路7-2號,縣市政府,25.046752,121.523009,特優級,民眾洽公場所,女廁所,臺北市政府財政局,0
63000,63000050,梅花里,A050001412,臺北市稅捐稽徵總處東4F男,臺北市中正區梅花里北平東路7-2號,縣市政府,25.046752,121.523009,特優級,民眾洽公場所,男廁所,臺北市政府財政局,0
63000,63000050,光復里,A050001003,中山堂中正南3F男,臺北市中正區光復里延平南路98號,縣市政府,25.042842,121.509684,特優級,文化育樂活動場所,男廁所,臺北市政府文化局,0
63000,63000050,光復里,A050001002,中山堂中正南2F女,臺北市中正區光復里延平南路98號,縣市政府,25.043108,121.510127,特優級,文化育樂活動場所,女廁所,臺北市政府文化局,0
63000,63000050,光復里,A050001001,中山堂中正北2F男,臺北市中正區光復里延平南路98號,縣市政府,25.043108,121.510127,特優級,文化育樂活動場所,男廁所,臺北市政府文化局,0
63000,63000050,光復里,A050001000,中山堂中正南1F無障礙,臺北市中正區光復里延平南路98號,縣市政府,25.043108,121.510127,特優級,文化育樂活動場所,無障礙廁所,臺北市政府文化局,0
63000,63000050,光復里,A050000999,中山堂中正南1F女,臺北市中正區光復里延平南路98號,縣市政府,25.043108,121.510127,特優級,文化育樂活動場所,女廁所,臺北市政府文化局,0
63000,63000050,光復里,A050000998,中山堂中正廳北側1F親子,臺北市中正區光復里延平南路98號,縣市政府,25.043108,121.510127,特優級,文化育樂活動場所,親子廁所,臺北市政府文化局,0
63000,63000050,光復里,A050000997,中山堂中正廳北側1F女,臺北市中正區光復里延平南路98號,縣市政府,25.043108,121.510127,特優級,文化育樂活動場所,女廁所,臺北市政府文化局,0
63000,63000050,光復里,A050000996,中山堂中正廳北廁1F男,臺北市中正區光復里延平南路98號,縣市政府,25.043108,121.510127,特優級,文化育樂活動場所,男廁所,臺北市政府文化局,0
63000,63000050,黎明里,A050001904,東森地下街K區中親子廁所,臺北市中正區黎明里忠孝西路一段47號B1,縣市政府,25.04696106,121.5172648,特優級,商業營業場所,親子廁所,東森得易購股份有限公司,0
63000,63000120,洲美里,A120001317,洲美公園親子廁所,臺北市北投區洲美里臺北市北投區福美路199號,縣市政府,25.10028,121.505584,特優級,公園,親子廁所,臺北市政府工務局公園路燈工程管理處,0
63000,63000120,洲美里,A120001316,洲美公園無障礙,臺北市北投區洲美里臺北市北投區福美路199號,縣市政府,25.10028,121.505584,特優級,公園,無障礙廁所,臺北市政府工務局公園路燈工程管理處,0
63000,63000030,群賢里,A030001925,公有成功中繼市場2F無障礙,臺北市大安區群賢里敦化南路二段120號,縣市政府,25.02693885,121.5480834,特優級,商業營業場所,無障礙廁所,臺北市市場處,0
63000,63000030,群賢里,A030001924,公有成功中繼市場2F女,臺北市大安區群賢里敦化南路二段120號,縣市政府,25.0269352,121.5480995,特優級,商業營業場所,女廁所,臺北市市場處,0
63000,63000030,群賢里,A030001923,公有成功中繼市場2F男,臺北市大安區群賢里敦化南路二段120號,縣市政府,25.02693156,121.5480754,特優級,商業營業場所,男廁所,臺北市市場處,0
63000,63000030,群賢里,A030001922,公有成功中繼市場1F女,臺北市大安區群賢里敦化南路二段120號,縣市政府,25.02694857,121.5480968,特優級,商業營業場所,女廁所,臺北市市場處,0
63000,63000080,萬芳里,A080001760,萬芳公園親子廁所,臺北市文山區萬芳里文山區萬和街2號旁,縣市政府,25.001546,121.567892,特優級,公園,親子廁所,臺北市政府工務局公園路燈工程管理處,1
63000,63000100,石潭里,A100001461,石潭公園無障礙廁所,臺北市內湖區石潭里成功路二段,縣市政府,25.06352535,121.5917277,特優級,公園,無障礙廁所,臺北市政府工務局公園路燈工程管理處,0
63000,63000100,石潭里,A100001460,石潭公園女廁,臺北市內湖區石潭里成功路二段,縣市政府,25.06351016,121.5917254,特優級,公園,女廁所,臺北市政府工務局公園路燈工程管理處,0
63000,63000100,石潭里,A100001459,石潭公園男廁,臺北市內湖區石潭里成功路二段,縣市政府,25.06347912,121.5917653,特優級,公園,男廁所,臺北市政府工務局公園路燈工程管理處,0
63000,63000120,永欣里,A120001319,臺北榮民總醫院2門7F親子廁所,臺北市北投區永欣里臺北市北投區石牌路二段201號,國軍退除役官兵輔導委員會,25.119181,121.519166,特優級,社福機構、集會場所,親子廁所,臺北榮民總醫院,0
63000,63000120,永欣里,A120001318,臺北榮民總醫院2門7F無障礙,臺北市北投區永欣里臺北市北投區石牌路二段201號,國軍退除役官兵輔導委員會,25.119181,121.519166,特優級,社福機構、集會場所,無障礙廁所,臺北榮民總醫院,0
63000,63000090,中南里,A090000745,環球購物中心南港車站店B1A男廁(東),臺北市南港區中南里忠孝東路七段371號,交通部,25.052571,121.607496,特優級,商業營業場所,男廁所,冠樺生活股份有限公司,0
63000,63000090,中南里,A090000744,環球購物中心南港車站店B1A女廁(西),臺北市南港區中南里忠孝東路七段371號,交通部,25.052571,121.607496,特優級,商業營業場所,女廁所,冠樺生活股份有限公司,0
63000,63000090,中南里,A090000743,環球購物中心南港車站店B1A男廁(西),臺北市南港區中南里忠孝東路七段371號,交通部,25.052571,121.607496,特優級,商業營業場所,男廁所,冠樺生活股份有限公司,0
63000,63000120,立農里,A120001313,立農公園無障礙廁所,臺北市北投區立農里臺北市北投區立農街22巷1弄,縣市政府,25.119402,121.503282,特優級,公園,無障礙廁所,臺北市政府工務局公園路燈工程管理處,0
63000,63000120,立農里,A120001312,立農公園女廁,臺北市北投區立農里臺北市北投區立農街22巷1弄,縣市政府,25.119402,121.503282,特優級,公園,女廁所,臺北市政府工務局公園路燈工程管理處,0
63000,63000120,永欣里,A120001271,臺北榮民總醫院中正樓2F女,臺北市北投區永欣里臺北市北投區石牌路二段201號,國軍退除役官兵輔導委員會,25.12024668,121.5200731,特優級,社福機構、集會場所,女廁所,臺北榮民總醫院,0
63000,63000120,永欣里,A120001270,臺北榮民總醫院中正樓2F男,臺北市北投區永欣里臺北市北投區石牌路二段201號,國軍退除役官兵輔導委員會,25.12024911,121.5201026,特優級,社福機構、集會場所,男廁所,臺北榮民總醫院,0
63000,63000030,光武里,A030000405,東區地下街廣7親子廁所,臺北市大安區光武里大安路一段77號,縣市政府,25.041916,121.546315,特優級,商業營業場所,親子廁所,臺北大眾捷運股份有限公司,0
63000,63000030,光武里,A030000404,東區地下街廣4親子廁所,臺北市大安區光武里大安路一段77號,縣市政府,25.041916,121.546315,特優級,商業營業場所,親子廁所,臺北大眾捷運股份有限公司,0
63000,63000030,光武里,A030000403,東區地下街廣1親子廁所,臺北市大安區光武里大安路一段77號,縣市政府,25.041916,121.546315,特優級,商業營業場所,親子廁所,臺北大眾捷運股份有限公司,0
63000,63000070,騰雲里,A070000913,青年公園6號性別友善,臺北市萬華區騰雲里水源路199號,縣市政府,25.02548887,121.5059967,特優級,公園,性別友善廁所,臺北市政府工務局公園路燈工程管理處,0
63000,63000020,景勤里,A020001497,臺北市立圖書館三興分館4F親子廁所,臺北市信義區景勤里吳興街156巷6號4樓,縣市政府,25.029014,121.561176,特優級,文化育樂活動場所,親子廁所,臺北市立圖書館,0
63000,63000050,幸福里,A050001475,公有華山市場1F女,臺北市中正區幸福里忠孝東路一段108號,縣市政府,25.044253,121.524772,特優級,商業營業場所,女廁所,臺北市市場處,0
63000,63000070,富福里,A070000393,公有龍山商場3F女,臺北市萬華區富福里和平西路三段120號,縣市政府,25.035011,121.499812,特優級,商業營業場所,女廁所,臺北市市場處,0
63000,63000070,富福里,A070000392,公有龍山商場2F女,臺北市萬華區富福里和平西路三段120號,縣市政府,25.035011,121.499812,特優級,商業營業場所,女廁所,臺北市市場處,0
63000,63000080,景華里,A080000179,景華公園地下停車場女,臺北市文山區景華里文山區景華街55號,縣市政府,24.995232,121.543721,特優級,交通,女廁所,臺北市停車管理工程處,0
63000,63000120,清江里,A120000582,大豐公園地下停車場女,臺北市北投區清江里臺北市北投區大興街145號,縣市政府,25.131159,121.504125,特優級,交通,女廁所,臺北市停車管理工程處,0
63000,63000060,玉泉里,A060000007,市民大道地下停車場塔城段B1女,臺北市大同區玉泉里西寧北路-塔城街間地下,縣市政府,25.052112,121.508668,特優級,交通,女廁所,臺北市停車管理工程處,0
63000,63000050,黎明里,A050001334,國立臺灣博物館土銀展示館4F男女,臺北市中正區黎明里襄陽路2號,文化部,25.043538,121.514331,特優級,文化育樂活動場所,混合廁所,國立臺灣博物館,0
63000,63000110,後港里,A110002015,士林監理站考檢驗場出入口無障礙,臺北市士林區後港里承德路五段80號,交通部,25.094632,121.514231,特優級,民眾洽公場所,無障礙廁所,交通部公路總局,0
63000,63000110,後港里,A110002014,士林監理站考檢驗場出入口女,臺北市士林區後港里承德路五段80號,交通部,25.094632,121.514231,特優級,民眾洽公場所,女廁所,交通部公路總局,0
63000,63000110,後港里,A110002013,士林監理站考檢驗場出入口男,臺北市士林區後港里承德路五段80號,交通部,25.094632,121.514231,特優級,民眾洽公場所,男廁所,交通部公路總局,0
63000,63000010,中崙里,A010001291,微風廣場8樓親子,臺北市松山區中崙里復興南路一段39號,縣市政府,25.046129,121.544126,特優級,商業營業場所,親子廁所,微風廣場,0
63000,63000010,中崙里,A010001290,微風廣場8樓女,臺北市松山區中崙里復興南路一段39號,縣市政府,25.046129,121.544126,特優級,商業營業場所,女廁所,微風廣場,0
63000,63000010,中崙里,A010001289,微風廣場8樓男,臺北市松山區中崙里復興南路一段39號,縣市政府,25.046129,121.544126,特優級,商業營業場所,男廁所,微風廣場,0
63000,63000010,中崙里,A010001294,微風廣場9樓親子,臺北市松山區中崙里復興南路一段39號,縣市政府,25.046129,121.544126,特優級,商業營業場所,親子廁所,微風廣場,0
63000,63000010,中崙里,A010001293,微風廣場9樓女,臺北市松山區中崙里復興南路一段39號,縣市政府,25.046129,121.544126,特優級,商業營業場所,女廁所,微風廣場,0
63000,63000010,中崙里,A010001292,微風廣場9樓男,臺北市松山區中崙里復興南路一段39號,行政院,25.046129,121.544126,特優級,商業營業場所,男廁所,微風廣場,0
63000,63000120,湖田里,A120001327,陽明山國家公園遊客服務中心親子廁所,臺北市北投區湖田里臺北市北投區小油坑地質景觀區遊客服務中心,內政部,25.15522939,121.5464687,特優級,觀光地區及風景區,親子廁所,內政部國家公園署陽明山國家公園管理處,0
63000,63000120,湖田里,A120001326,陽明山國家公園遊客服務中心無障礙,臺北市北投區湖田里臺北市北投區小油坑地質景觀區遊客服務中心,內政部,25.15534593,121.5466511,特優級,觀光地區及風景區,無障礙廁所,內政部國家公園署陽明山國家公園管理處,0
63000,63000110,菁山里,A110002022,陽明山國家公園擎天岡遊客服務站親子廁所,臺北市士林區菁山里擎天岡遊客服務站,內政部,25.16721,121.574214,特優級,觀光地區及風景區,親子廁所,內政部國家公園署陽明山國家公園管理處,0
63000,63000060,永樂里,A060000881,大稻埕遊客中心3樓女廁,臺北市大同區永樂里迪化街一段44號,縣市政府,25.054931,121.510007,特優級,文化育樂活動場所,女廁所,臺北市觀光傳播局,0
63000,63000060,永樂里,A060000880,大稻埕遊客中心2樓男廁,臺北市大同區永樂里迪化街一段44號,縣市政府,25.054931,121.510007,特優級,文化育樂活動場所,男廁所,臺北市觀光傳播局,0
63000,63000060,永樂里,A060000879,大稻埕遊客中心1樓無障礙,臺北市大同區永樂里迪化街一段44號,縣市政府,25.054931,121.510007,特優級,文化育樂活動場所,無障礙廁所,臺北市觀光傳播局,0
63000,63000110,菁山里,A110002021,陽明山國家公園擎天岡遊客服務站無障礙,臺北市士林區菁山里擎天岡遊客服務站,內政部,25.16721,121.574214,特優級,觀光地區及風景區,無障礙廁所,內政部國家公園署陽明山國家公園管理處,0
63000,63000110,菁山里,A110002020,陽明山國家公園擎天岡遊客服務站女,臺北市士林區菁山里擎天岡遊客服務站,內政部,25.16721,121.574214,特優級,觀光地區及風景區,女廁所,內政部國家公園署陽明山國家公園管理處,0
63000,63000120,洲美里,A120001315,洲美公園女廁,臺北市北投區洲美里臺北市北投區福美路199號,縣市政府,25.10028,121.505584,特優級,公園,女廁所,臺北市政府工務局公園路燈工程管理處,0
63000,63000120,洲美里,A120001314,洲美公園男廁,臺北市北投區洲美里臺北市北投區福美路199號,縣市政府,25.10028,121.505584,特優級,公園,男廁所,臺北市政府工務局公園路燈工程管理處,0
63000,63000020,新仁里,A020001657,臺北大巨蛋B1一壘側107親子廁所,臺北市信義區新仁里忠孝東路四段515號,縣市政府,25.042314,121.55953,特優級,文化育樂活動場所,親子廁所,遠雄巨蛋事業股份有限公司,0
63000,63000020,新仁里,A020001656,臺北大巨蛋B1一壘側107女廁,臺北市信義區新仁里忠孝東路四段515號,縣市政府,25.042314,121.55953,特優級,文化育樂活動場所,女廁所,遠雄巨蛋事業股份有限公司,0
63000,63000020,新仁里,A020001655,臺北大巨蛋B1一壘內野108男廁,臺北市信義區新仁里忠孝東路四段515號,縣市政府,25.042314,121.55953,特優級,文化育樂活動場所,男廁所,遠雄巨蛋事業股份有限公司,0
63000,63000020,新仁里,A020001654,臺北大巨蛋B1一壘內野110女廁,臺北市信義區新仁里忠孝東路四段515號,縣市政府,25.042314,121.55953,特優級,文化育樂活動場所,女廁所,遠雄巨蛋事業股份有限公司,0
63000,63000020,新仁里,A020001653,臺北大巨蛋B1一壘內野110無障礙廁所2,臺北市信義區新仁里忠孝東路四段515號,縣市政府,25.042314,121.55953,特優級,文化育樂活動場所,無障礙廁所,遠雄巨蛋事業股份有限公司,0
63000,63000020,新仁里,A020001652,臺北大巨蛋B1一壘內野110無障礙廁所1,臺北市信義區新仁里忠孝東路四段515號,縣市政府,25.042314,121.55953,特優級,文化育樂活動場所,無障礙廁所,遠雄巨蛋事業股份有限公司,0
63000,63000020,新仁里,A020001651,臺北大巨蛋B1一壘內野110男廁,臺北市信義區新仁里忠孝東路四段515號,縣市政府,25.042314,121.55953,特優級,文化育樂活動場所,男廁所,遠雄巨蛋事業股份有限公司,0
63000,63000010,中正里,A010001313,行天宮附設玄空圖書館4F無障礙,臺北市松山區中正里敦化北路120巷9號,縣市政府,25.053842,121.547693,特優級,文化育樂活動場所,無障礙廁所,財團法人臺北行天宮,0
63000,63000010,中正里,A010001312,行天宮附設玄空圖書館1F親子,臺北市松山區中正里敦化北路120巷9號,縣市政府,25.053842,121.547693,特優級,文化育樂活動場所,親子廁所,財團法人臺北行天宮,0
63000,63000080,樟林里,A080001145,木柵公園親子廁所,臺北市文山區樟林里文山區下崙路9之3號對面,縣市政府,24.986508,121.56021,特優級,公園,親子廁所,臺北市政府工務局公園路燈工程管理處,1
63000,63000070,福音里,A070000341,老松公園女,臺北市萬華區福音里桂林路65巷,縣市政府,25.038408,121.502617,特優級,公園,女廁所,臺北市政府工務局公園路燈工程管理處,0
63000,63000040,圓山里,A040000326,花博公園圓山出入口女,臺北市中山區圓山里玉門街1號,縣市政府,25.070359,121.520497,特優級,公園,女廁所,財團法人臺北市會展產業發展基金會,1
63000,63000040,圓山里,A040000325,花博公園圓山出入口男,臺北市中山區圓山里玉門街1號,縣市政府,25.070359,121.520497,特優級,公園,男廁所,財團法人臺北市會展產業發展基金會,0
63000,63000100,西湖里,A100000001,東易加油站男女,臺北市內湖區西湖里提頂大道二段191號,縣市政府,25.077853,121.568549,特優級,商業營業場所,混合廁所,東易加油站股份有限公司,0
63000,63000080,博嘉里,A080001298,博嘉運動公園4F男,臺北市文山區博嘉里文山區木柵路四段159巷16號,縣市政府,25.00102,121.575592,特優級,文化育樂活動場所,男廁所,臺北市政府環境保護局木柵垃圾焚化廠,0
63000,63000080,博嘉里,A080001297,博嘉運動公園4F女,臺北市文山區博嘉里文山區木柵路四段159巷16號,縣市政府,25.00102,121.575592,特優級,文化育樂活動場所,女廁所,臺北市政府環境保護局木柵垃圾焚化廠,0
63000,63000080,博嘉里,A080001296,博嘉運動公園3F男,臺北市文山區博嘉里文山區木柵路四段159巷16號,縣市政府,25.00102,121.575592,特優級,文化育樂活動場所,男廁所,臺北市政府環境保護局木柵垃圾焚化廠,0
63000,63000080,博嘉里,A080001295,博嘉運動公園3F女,臺北市文山區博嘉里文山區木柵路四段159巷16號,縣市政府,25.00102,121.575592,特優級,文化育樂活動場所,女廁所,臺北市政府環境保護局木柵垃圾焚化廠,0
63000,63000080,博嘉里,A080001294,博嘉運動公園2F男,臺北市文山區博嘉里文山區木柵路四段159巷16號,縣市政府,25.00102,121.575592,特優級,文化育樂活動場所,男廁所,臺北市政府環境保護局木柵垃圾焚化廠,0
63000,63000080,博嘉里,A080001293,博嘉運動公園2F女,臺北市文山區博嘉里文山區木柵路四段159巷16號,縣市政府,25.00102,121.575592,特優級,文化育樂活動場所,女廁所,臺北市政府環境保護局木柵垃圾焚化廠,0
63000,63000080,博嘉里,A080001292,博嘉運動公園1F兒童,臺北市文山區博嘉里文山區木柵路四段159巷16號,縣市政府,25.00102,121.575592,特優級,文化育樂活動場所,親子廁所,臺北市政府環境保護局木柵垃圾焚化廠,1
63000,63000020,西村里,A020000622,臺北世界貿易展覽中心(世貿一館)1F144號男,臺北市信義區西村里信義路五段5號,經濟部,25.033152,121.56234,特優級,文化育樂活動場所,男廁所,臺北世界貿易中心,0
63000,63000020,西村里,A020000621,臺北世界貿易展覽中心(世貿一館)1F141號女,臺北市信義區西村里信義路五段5號,經濟部,25.033152,121.56234,特優級,文化育樂活動場所,女廁所,臺北世界貿易中心,0
63000,63000020,西村里,A020000620,臺北世界貿易展覽中心(世貿一館)1F140號女,臺北市信義區西村里信義路五段5號,經濟部,25.033152,121.56234,特優級,文化育樂活動場所,女廁所,臺北世界貿易中心,0
63000,63000020,西村里,A020000619,臺北世界貿易展覽中心(世貿一館)1F137號男,臺北市信義區西村里信義路五段5號,經濟部,25.033152,121.56234,特優級,文化育樂活動場所,男廁所,臺北世界貿易中心,0
63000,63000020,西村里,A020000618,臺北世界貿易展覽中心(世貿一館)1F135號女,臺北市信義區西村里信義路五段5號,經濟部,25.033152,121.56234,特優級,文化育樂活動場所,女廁所,臺北世界貿易中心,0
63000,63000020,西村里,A020000617,臺北世界貿易展覽中心(世貿一館)1F134號女,臺北市信義區西村里信義路五段5號,經濟部,25.033152,121.56234,特優級,文化育樂活動場所,女廁所,臺北世界貿易中心,0
63000,63000020,西村里,A020000616,臺北世界貿易展覽中心(世貿一館)1F131號女,臺北市信義區西村里信義路五段5號,經濟部,25.033152,121.56234,特優級,文化育樂活動場所,女廁所,臺北世界貿易中心,0
63000,63000020,西村里,A020000615,臺北世界貿易展覽中心(世貿一館)1F130號女,臺北市信義區西村里信義路五段5號,經濟部,25.033152,121.56234,特優級,文化育樂活動場所,女廁所,臺北世界貿易中心,0
63000,63000020,西村里,A020000614,臺北世界貿易展覽中心(世貿一館)1F127號男,臺北市信義區西村里信義路五段5號,經濟部,25.033152,121.56234,特優級,文化育樂活動場所,男廁所,臺北世界貿易中心,0
63000,63000020,西村里,A020000605,臺北世界貿易展覽中心(世貿一館)1F169號女,臺北市信義區西村里信義路五段5號,經濟部,25.033152,121.56234,特優級,文化育樂活動場所,女廁所,臺北世界貿易中心,0
63000,63000020,西村里,A020000604,臺北世界貿易展覽中心(世貿一館)1F166號男,臺北市信義區西村里信義路五段5號,經濟部,25.033152,121.56234,特優級,文化育樂活動場所,男廁所,臺北世界貿易中心,0
63000,63000020,西村里,A020000603,臺北世界貿易展覽中心(世貿一館)1F164號女,臺北市信義區西村里信義路五段5號,經濟部,25.033152,121.56234,特優級,文化育樂活動場所,女廁所,臺北世界貿易中心,0
63000,63000020,西村里,A020000602,臺北世界貿易展覽中心(世貿一館)1F163號女,臺北市信義區西村里信義路五段5號,經濟部,25.033152,121.56234,特優級,文化育樂活動場所,女廁所,臺北世界貿易中心,0
63000,63000020,西村里,A020000601,臺北世界貿易展覽中心(世貿一館)1F160號男,臺北市信義區西村里信義路五段5號,經濟部,25.033152,121.56234,特優級,文化育樂活動場所,男廁所,臺北世界貿易中心,0
63000,63000020,西村里,A020000600,臺北世界貿易展覽中心(世貿一館)1F156號男,臺北市信義區西村里信義路五段5號,經濟部,25.033152,121.56234,特優級,文化育樂活動場所,男廁所,臺北世界貿易中心,0
63000,63000020,西村里,A020000599,臺北世界貿易展覽中心(世貿一館)1F155號女,臺北市信義區西村里信義路五段5號,經濟部,25.033152,121.56234,特優級,文化育樂活動場所,女廁所,臺北世界貿易中心,0
63000,63000020,西村里,A020000598,臺北世界貿易展覽中心(世貿一館)B1-119號男,臺北市信義區西村里信義路五段5號,經濟部,25.033152,121.56234,特優級,文化育樂活動場所,男廁所,臺北世界貿易中心,0
63000,63000020,西村里,A020000597,臺北世界貿易展覽中心(世貿一館)B1-118號女,臺北市信義區西村里信義路五段5號,經濟部,25.033152,121.56234,特優級,文化育樂活動場所,女廁所,臺北世界貿易中心,0
63000,63000110,德行里,A110001030,SOGO百貨台北天母店4F男,臺北市士林區德行里中山北路六段77號,太平洋SOGO崇光百貨,25.104686,121.524523,特優級,商業營業場所,男廁所,太平洋SOGO崇光百貨天母店,0
63000,63000110,德行里,A110001029,SOGO百貨台北天母店3F女,臺北市士林區德行里中山北路六段77號,太平洋SOGO崇光百貨,25.104686,121.524523,特優級,商業營業場所,女廁所,太平洋SOGO崇光百貨天母店,0
63000,63000110,德行里,A110001028,SOGO百貨台北天母店2F女,臺北市士林區德行里中山北路六段77號,太平洋SOGO崇光百貨,25.104686,121.524523,特優級,商業營業場所,女廁所,太平洋SOGO崇光百貨天母店,0
63000,63000110,德行里,A110001027,SOGO百貨台北天母店2F男,臺北市士林區德行里中山北路六段77號,太平洋SOGO崇光百貨,25.104686,121.524523,特優級,商業營業場所,男廁所,太平洋SOGO崇光百貨天母店,0
63000,63000110,德行里,A110001026,SOGO百貨台北天母店B4男女,臺北市士林區德行里中山北路六段77號,縣市政府,25.104686,121.524523,特優級,商業營業場所,混合廁所,太平洋SOGO崇光百貨天母店,0
63000,63000110,德行里,A110001025,SOGO百貨台北天母店B3男女,臺北市士林區德行里中山北路六段77號,太平洋SOGO崇光百貨,25.104686,121.524523,特優級,商業營業場所,混合廁所,太平洋SOGO崇光百貨天母店,0
63000,63000020,新仁里,A020000735,誠品生活松菸店西2F女,臺北市信義區新仁里菸廠路88號,縣市政府,25.044737,121.561111,特優級,商業營業場所,女廁所,誠品股份有限公司,0
63000,63000020,新仁里,A020000734,誠品生活松菸店西2F男,臺北市信義區新仁里菸廠路88號,縣市政府,25.044737,121.561111,特優級,商業營業場所,男廁所,誠品股份有限公司,0
63000,63000020,新仁里,A020000733,誠品生活松菸店西1F無障礙,臺北市信義區新仁里菸廠路88號,縣市政府,25.044737,121.561111,特優級,商業營業場所,無障礙廁所,誠品股份有限公司,0
63000,63000020,新仁里,A020000732,誠品生活松菸店西1F女,臺北市信義區新仁里菸廠路88號,縣市政府,25.044737,121.561111,特優級,商業營業場所,女廁所,誠品股份有限公司,0
63000,63000020,新仁里,A020000731,誠品生活松菸店西1F男,臺北市信義區新仁里菸廠路88號,縣市政府,25.044737,121.561111,特優級,商業營業場所,男廁所,誠品股份有限公司,0
63000,63000020,新仁里,A020000723,誠品生活松菸店東B2F男,臺北市信義區新仁里菸廠路88號,縣市政府,25.044737,121.561111,特優級,商業營業場所,男廁所,誠品股份有限公司,0
63000,63000070,西門里,A070000187,誠品生活西門店3F男廁,臺北市萬華區西門里武昌街2段77號,縣市政府,25.043798,121.505412,特優級,商業營業場所,男廁所,誠品百貨,0
63000,63000070,萬壽里,A070000127,誠品生活武昌店B1女,臺北市萬華區萬壽里武昌街2段77號,縣市政府,25.045076,121.505709,特優級,商業營業場所,女廁所,誠品百貨武昌館,0
63000,63000070,萬壽里,A070000126,誠品生活武昌店B1男,臺北市萬華區萬壽里武昌街2段77號,縣市政府,25.045077,121.505709,特優級,商業營業場所,男廁所,誠品百貨武昌館,0
63000,63000070,富民里,A070000325,龍山寺地下街西園路B1女,臺北市萬華區富民里西園路一段153號,縣市政府,25.036142,121.499523,特優級,商業營業場所,女廁所,龍山寺地下街,0
63000,63000070,富民里,A070000323,龍山寺地下街西園路B1男,臺北市萬華區富民里西園路一段153號,縣市政府,25.036142,121.499523,特優級,商業營業場所,男廁所,龍山寺地下街,0
63000,63000080,萬美里,A080001592,萬芳派出所男女,臺北市文山區萬美里文山區萬美街一段50號,縣市政府,25.002267,121.566815,特優級,民眾洽公場所,混合廁所,臺北市政府警察局文山第一分局,0
63000,63000080,指南里,A080001515,文山公園3號男女,臺北市文山區指南里文山區指南路三段(山上)草湳橋左側,縣市政府,24.985326,121.580028,特優級,民眾洽公場所,混合廁所,臺北市環保局,1
63000,63000080,政大里,A080001626,指南派出所男女,臺北市文山區政大里文山區指南路二段177號,縣市政府,24.987314,121.577933,特優級,民眾洽公場所,混合廁所,臺北市政府警察局文山第一分局,0
63000,63000060,國慶里,A060000668,民族路派出所男女,臺北市大同區國慶里重慶北路三段168號,縣市政府,25.068787,121.513581,特優級,民眾洽公場所,混合廁所,臺北市政府警察局大同分局,0
63000,63000100,內溝里,A100000784,統一超商臺北市瓏山林門市男女,臺北市內湖區內溝里康樂街125巷2號,縣市政府,25.073429,121.619682,特優級,商業營業場所,混合廁所,統一超商股份有限公司,0
63000,63000040,圓山里,A040000351,海霸王(北區)8F混合廁,臺北市中山區圓山里'中山北路三段59號,縣市政府,25.068603,121.523163,特優級,商業營業場所,混合廁所,海霸王企業集團,0
63000,63000040,圓山里,A040000350,海霸王(北區)7F混合廁,臺北市中山區圓山里'中山北路三段59號,縣市政府,25.068603,121.523163,特優級,商業營業場所,混合廁所,海霸王企業集團,0
63000,63000040,圓山里,A040000349,海霸王(北區)6F混合廁,臺北市中山區圓山里'中山北路三段59號,縣市政府,25.068603,121.523163,特優級,商業營業場所,混合廁所,海霸王企業集團,0
63000,63000040,圓山里,A040000348,海霸王(北區)3F混合廁,臺北市中山區圓山里'中山北路三段59號,縣市政府,25.068603,121.523163,特優級,商業營業場所,混合廁所,海霸王企業集團,0
63000,63000040,圓山里,A040000347,海霸王(北區)2F混合廁,臺北市中山區圓山里'中山北路三段59號,縣市政府,25.068603,121.523163,特優級,商業營業場所,混合廁所,海霸王企業集團,0
63000,63000040,圓山里,A040000346,海霸王(北區)B1混合廁,臺北市中山區圓山里'中山北路三段59號,縣市政府,25.068603,121.523163,特優級,商業營業場所,混合廁所,海霸王企業集團,0
63000,63000040,晴光里,A040000318,欣葉餐廳2樓男女,臺北市中山區晴光里'雙城街34號,縣市政府,25.066493,121.524238,特優級,商業營業場所,混合廁所,欣葉實業股份有限公司,0
63000,63000040,晴光里,A040000317,欣葉餐廳B1男女,臺北市中山區晴光里'雙城街34號,縣市政府,25.066493,121.524238,特優級,商業營業場所,混合廁所,欣葉實業股份有限公司,0
63000,63000040,中原里,A040000883,台灣中油新生北路加油站男女,臺北市中山區中原里'新生北路二段71號,經濟部,25.056546,121.528041,特優級,商業營業場所,混合廁所,台灣中油股份有限公司,1
63000,63000100,湖元里,A100000936,台灣中油內湖加油站男廁,臺北市內湖區湖元里民權東路六段50號,經濟部,25.06822881,121.5839875,特優級,商業營業場所,男廁所,台灣中油股份有限公司,0
63000,63000110,德華里,A110001044,捷運芝山站南女,臺北市士林區德華里福國路70號,臺北大眾捷運股份有限公司,25.102129,121.522661,特優級,交通,女廁所,臺北大眾捷運股份有限公司,0
63000,63000110,德華里,A110001043,捷運芝山站南男,臺北市士林區德華里福國路70號,臺北大眾捷運股份有限公司,25.102129,121.522661,特優級,交通,男廁所,臺北大眾捷運股份有限公司,0
63000,63000110,福德里,A110000246,捷運士林站北親子,臺北市士林區福德里福德路1號,臺北大眾捷運股份有限公司,25.092843,121.526371,特優級,交通,親子廁所,臺北大眾捷運股份有限公司,1
63000,63000110,福德里,A110000245,捷運士林站北女,臺北市士林區福德里福德路1號,臺北大眾捷運股份有限公司,25.092843,121.526371,特優級,交通,女廁所,臺北大眾捷運股份有限公司,0
63000,63000110,福德里,A110000244,捷運士林站北男,臺北市士林區福德里福德路1號,臺北大眾捷運股份有限公司,25.092843,121.526371,特優級,交通,男廁所,臺北大眾捷運股份有限公司,0
63000,63000110,福德里,A110000243,捷運士林站南女,臺北市士林區福德里福德路1號,臺北大眾捷運股份有限公司,25.092843,121.526371,特優級,交通,女廁所,臺北大眾捷運股份有限公司,0
63000,63000110,福德里,A110000242,捷運士林站南男,臺北市士林區福德里福德路1號,臺北大眾捷運股份有限公司,25.092843,121.526371,特優級,交通,男廁所,臺北大眾捷運股份有限公司,0
63000,63000110,義信里,A110000043,捷運劍潭站北親子,臺北市士林區中山北路五段65號,縣市政府,25.083562,121.525163,特優級,,親子廁所,臺北大眾捷運股份有限公司,0
63000,63000110,義信里,A110000042,捷運劍潭站北女,臺北市士林區義信里中山北路五段65號,02-2536-3001,25.083562,121.525163,特優級,交通,女廁所,臺北大眾捷運股份有限公司,0
63000,63000080,萬興里,A080001309,捷運動物園站女,臺北市文山區萬興里文山區新光路二段32號,縣市政府,24.998263,121.579869,特優級,交通,女廁所,臺北大眾捷運股份有限公司,1
63000,63000080,萬興里,A080001308,捷運動物園站男,臺北市文山區萬興里文山區新光路二段32號,縣市政府,24.998263,121.579869,特優級,交通,男廁所,臺北大眾捷運股份有限公司,1
63000,63000080,博嘉里,A080001237,捷運木柵站男,臺北市文山區博嘉里文山區木柵路四段135號,縣市政府,24.998197,121.573445,特優級,交通,男廁所,臺北大眾捷運股份有限公司,1
63000,63000080,博嘉里,A080001236,捷運木柵站女,臺北市文山區博嘉里文山區木柵路四段135號,縣市政府,24.998197,121.573445,特優級,交通,女廁所,臺北大眾捷運股份有限公司,1
63000,63000080,興泰里,A080000680,捷運辛亥站女,臺北市文山區興泰里文山區辛亥路四段128號,縣市政府,25.005071,121.556915,特優級,交通,女廁所,臺北大眾捷運股份有限公司,1
63000,63000080,興泰里,A080000679,捷運辛亥站男,臺北市文山區興泰里文山區辛亥路四段128號,縣市政府,25.005071,121.556915,特優級,交通,男廁所,臺北大眾捷運股份有限公司,1
63000,63000080,興光里,A080000348,捷運萬芳醫院站女,臺北市文山區興光里文山區興隆路三段113號,縣市政府,24.999429,121.557652,特優級,交通,女廁所,臺北大眾捷運股份有限公司,1
63000,63000080,興光里,A080000347,捷運萬芳醫院站男,臺北市文山區興光里文山區興隆路三段113號,縣市政府,24.999429,121.557652,特優級,交通,男廁所,臺北大眾捷運股份有限公司,1
63000,63000080,萬隆里,A080000269,捷運萬隆站女,臺北市文山區萬隆里文山區羅斯福路五段214號,縣市政府,25.00252,121.538556,特優級,交通,女廁所,臺北大眾捷運股份有限公司,1
63000,63000050,幸市里,A050001706,公有幸安市場1F男,臺北市中正區幸市里濟南路二段46號,縣市政府,25.040351,121.530902,特優級,商業營業場所,男廁所,臺北市市場處,0
63000,63000050,幸福里,A050001472,公有華山市場2F女,臺北市中正區幸福里忠孝東路一段108號,縣市政府,25.044253,121.524772,特優級,商業營業場所,女廁所,臺北市市場處,0
63000,63000050,幸福里,A050001471,公有華山市場1F男,臺北市中正區幸福里忠孝東路一段108號,縣市政府,25.044253,121.524772,特優級,商業營業場所,男廁所,臺北市市場處,0
63000,63000100,行善里,A100000815,萊爾富便利商店北市麥帥店男女,臺北市內湖區行善里行善路33及31號,縣市政府,25.05661097,121.576016,特優級,商業營業場所,混合廁所,萊爾富國際股份有限公司,0
63000,63000100,寶湖里,A100001280,萊爾富便利商店北市國醫店男女,臺北市內湖區寶湖里權東路六段123巷32號,縣市政府,25.070367,121.592862,特優級,商業營業場所,混合廁所,萊爾富國際股份有限公司,0
63000,63000030,龍生里,A030000950,中國文化大學推廣教育部B2男廁,臺北市大安區龍生里建國南路二段231號,教育部,25.02595,121.538039,特優級,其他,男廁所,中國文化大學推廣教育部,0
63000,63000030,龍生里,A030000949,中國文化大學推廣教育部B3女廁,臺北市大安區龍生里建國南路二段231號,教育部,25.02595,121.538039,特優級,其他,女廁所,中國文化大學推廣教育部,0
63000,63000040,復華里,A040001188,國稅局松山分局3F女,臺北市中山區復華里'南京東路三段131號4樓,財政部,25.052128,121.540662,特優級,民眾洽公場所,女廁所,財政部臺北市國稅局,0
63000,63000040,復華里,A040001187,國稅局松山分局3F男,臺北市中山區復華里'南京東路三段131號4樓,財政部,25.052128,121.540662,特優級,民眾洽公場所,男廁所,財政部臺北市國稅局,0
63000,63000040,行政里,A040000686,中山地政事務所1F女,臺北市中山區行政里'松江路357巷1號1樓,縣市政府,25.063515,121.534028,特優級,民眾洽公場所,女廁所,臺北市政府地政局,0
63000,63000040,行政里,A040000685,中山地政事務所1F男,臺北市中山區行政里'松江路357巷1號1樓,縣市政府,25.063531,121.53417,特優級,民眾洽公場所,男廁所,臺北市政府地政局,0
63000,63000070,綠堤里,A070000577,統一超商臺北市雙環門市男女,臺北市萬華區綠堤里環河南路二段207號,縣市政府,25.032063,121.491564,特優級,商業營業場所,混合廁所,統一超商股份有限公司,0
63000,63000020,西村里,A020000339,市政大樓中央南區5F男,臺北市信義區西村里府路1號,縣市政府,25.037523,121.563784,特優級,民眾洽公場所,男廁所,臺北市市政大樓公共事務管理中心,1
63000,63000020,西村里,A020000338,市政大樓中央南區4F女,臺北市信義區西村里府路1號,縣市政府,25.037523,121.563784,特優級,民眾洽公場所,女廁所,臺北市市政大樓公共事務管理中心,1
63000,63000020,西村里,A020000337,市政大樓中央南區4F男,臺北市信義區西村里府路1號,縣市政府,25.037523,121.563784,特優級,民眾洽公場所,男廁所,臺北市市政大樓公共事務管理中心,1
63000,63000020,西村里,A020000336,市政大樓中央南區3F女,臺北市信義區西村里府路1號,縣市政府,25.037523,121.563784,特優級,民眾洽公場所,女廁所,臺北市市政大樓公共事務管理中心,1
63000,63000020,西村里,A020000335,市政大樓中央南區3F無障礙,臺北市信義區西村里府路1號,縣市政府,25.037523,121.563784,特優級,民眾洽公場所,無障礙廁所,臺北市市政大樓公共事務管理中心,0
63000,63000020,西村里,A020000334,市政大樓中央南區2F女,臺北市信義區西村里府路1號,縣市政府,25.037523,121.563784,特優級,民眾洽公場所,女廁所,臺北市市政大樓公共事務管理中心,1
63000,63000020,西村里,A020000333,市政大樓中央南區2F男,臺北市信義區西村里府路1號,縣市政府,25.037523,121.563784,特優級,民眾洽公場所,男廁所,臺北市市政大樓公共事務管理中心,0
63000,63000020,西村里,A020000332,市政大樓中央南區1F女,臺北市信義區西村里府路1號,縣市政府,25.037523,121.563784,特優級,民眾洽公場所,女廁所,臺北市市政大樓公共事務管理中心,1
63000,63000020,西村里,A020000331,市政大樓中央南區1F男,臺北市信義區西村里府路1號,縣市政府,25.037523,121.563784,特優級,民眾洽公場所,男廁所,臺北市市政大樓公共事務管理中心,0
63000,63000020,西村里,A020000161,新光三越台北信義新天地A9館西北6樓女,臺北市信義區西村里松壽路9號,縣市政府,25.036082,121.566661,特優級,商業營業場所,女廁所,新光三越百貨股份有限公司,0
63000,63000020,西村里,A020000160,新光三越台北信義新天地A9館西北6樓男,臺北市信義區西村里松壽路9號,縣市政府,25.036082,121.566661,特優級,商業營業場所,男廁所,新光三越百貨股份有限公司,0
63000,63000020,西村里,A020000159,新光三越台北信義新天地A9館西南6樓女,臺北市信義區西村里松壽路9號,縣市政府,25.036082,121.566661,特優級,商業營業場所,女廁所,新光三越百貨股份有限公司,0
63000,63000020,西村里,A020000158,新光三越台北信義新天地A9館西南6樓男,臺北市信義區西村里松壽路9號,縣市政府,25.036082,121.566661,特優級,商業營業場所,男廁所,新光三越百貨股份有限公司,0
63000,63000020,西村里,A020000157,新光三越台北信義新天地A9館西北5樓女,臺北市信義區西村里松壽路9號,縣市政府,25.036082,121.566661,特優級,商業營業場所,女廁所,新光三越百貨股份有限公司,0
63000,63000020,西村里,A020000156,新光三越台北信義新天地A9館西北5樓男,臺北市信義區西村里松壽路9號,縣市政府,25.036082,121.566661,特優級,商業營業場所,男廁所,新光三越百貨股份有限公司,0
63000,63000020,西村里,A020000155,新光三越台北信義新天地A9館西南5樓女,臺北市信義區西村里松壽路9號,縣市政府,25.036082,121.566661,特優級,商業營業場所,女廁所,新光三越百貨股份有限公司,0
63000,63000020,西村里,A020000154,新光三越台北信義新天地A9館西南5樓男,臺北市信義區西村里松壽路9號,縣市政府,25.036082,121.566661,特優級,商業營業場所,男廁所,新光三越百貨股份有限公司,0
63000,63000020,西村里,A020000153,新光三越台北信義新天地A9館西北4樓女,臺北市信義區西村里松壽路9號,縣市政府,25.036082,121.566661,特優級,商業營業場所,女廁所,新光三越百貨股份有限公司,0
63000,63000020,西村里,A020000145,新光三越台北信義新天地A9館西南B1女,臺北市信義區西村里松壽路9號,縣市政府,25.036082,121.566661,特優級,商業營業場所,女廁所,新光三越百貨股份有限公司,0
63000,63000020,西村里,A020000144,新光三越台北信義新天地A9館西南B1男,臺北市信義區西村里松壽路9號,縣市政府,25.036082,121.566661,特優級,商業營業場所,男廁所,新光三越百貨股份有限公司,0
63000,63000020,西村里,A020000143,新光三越台北信義新天地A9館西北B2女,臺北市信義區西村里松壽路9號,縣市政府,25.036082,121.566661,特優級,商業營業場所,女廁所,新光三越百貨股份有限公司,0
63000,63000020,西村里,A020000142,新光三越台北信義新天地A9館西北B2男,臺北市信義區西村里松壽路9號,縣市政府,25.036082,121.566661,特優級,商業營業場所,男廁所,新光三越百貨股份有限公司,0
63000,63000020,西村里,A020000141,新光三越台北信義新天地A9館西南B2女,臺北市信義區西村里松壽路9號,縣市政府,25.036082,121.566661,特優級,商業營業場所,女廁所,新光三越百貨股份有限公司,1
63000,63000020,西村里,A020000140,新光三越台北信義新天地A9館西南B2男,臺北市信義區西村里松壽路9號,縣市政府,25.036018,121.566575,特優級,商業營業場所,男廁所,新光三越百貨股份有限公司,0
63000,63000020,西村里,A020000139,新光三越台北信義新天地A9館東北B3女,臺北市信義區西村里松壽路9號,縣市政府,25.036082,121.566661,特優級,商業營業場所,女廁所,新光三越百貨股份有限公司,0
63000,63000020,西村里,A020000138,新光三越台北信義新天地A9館東北B3男,臺北市信義區西村里松壽路9號,縣市政府,25.036082,121.566661,特優級,商業營業場所,男廁所,新光三越百貨股份有限公司,0
63000,63000020,西村里,A020000137,新光三越台北信義新天地A9館西南B4女,臺北市信義區西村里松壽路9號,縣市政府,25.036082,121.566661,特優級,商業營業場所,女廁所,新光三越百貨股份有限公司,0
63000,63000020,西村里,A020000113,新光三越台北信義新天地A8館B1東北區女,臺北市信義區西村里松高路12號,縣市政府,25.038813,121.5668,特優級,商業營業場所,女廁所,新光三越百貨股份有限公司,0
63000,63000020,西村里,A020000112,新光三越台北信義新天地A8館B1東北區男,臺北市信義區西村里松高路12號,縣市政府,25.038813,121.5668,特優級,商業營業場所,男廁所,新光三越百貨股份有限公司,1
63000,63000020,西村里,A020000111,新光三越台北信義新天地A8館B2西南區女,臺北市信義區西村里松高路12號,縣市政府,25.038813,121.5668,特優級,商業營業場所,女廁所,新光三越百貨股份有限公司,1
63000,63000020,西村里,A020000110,新光三越台北信義新天地A8館B2西南區男,臺北市信義區西村里松高路12號,縣市政府,25.038813,121.5668,特優級,商業營業場所,男廁所,新光三越百貨股份有限公司,0
63000,63000020,西村里,A020000107,新光三越台北信義新天地A8館B4女,臺北市信義區西村里松高路12號,縣市政府,25.038813,121.5668,特優級,商業營業場所,女廁所,新光三越百貨股份有限公司,1
63000,63000020,西村里,A020000106,新光三越台北信義新天地A8館B4男,臺北市信義區西村里松高路12號,縣市政府,25.038813,121.5668,特優級,商業營業場所,男廁所,新光三越百貨股份有限公司,0
63000,63000020,西村里,A020000105,新光三越台北信義新天地A8館B5女,臺北市信義區西村里松高路12號,縣市政府,25.038813,121.5668,特優級,商業營業場所,女廁所,新光三越百貨股份有限公司,0
63000,63000020,西村里,A020000097,新光三越台北信義新天地A11館4樓西南女,臺北市信義區西村里松壽路11號,縣市政府,25.036072,121.56728,特優級,商業營業場所,女廁所,新光三越百貨股份有限公司,0
63000,63000020,西村里,A020000096,新光三越台北信義新天地A11館4樓西南男,臺北市信義區西村里松壽路11號,縣市政府,25.036072,121.56728,特優級,商業營業場所,男廁所,新光三越百貨股份有限公司,0
63000,63000020,西村里,A020000095,新光三越台北信義新天地A11館3樓東北女,臺北市信義區西村里松壽路11號,縣市政府,25.036072,121.56728,特優級,商業營業場所,女廁所,新光三越百貨股份有限公司,0
63000,63000020,西村里,A020000094,新光三越台北信義新天地A11館3樓東北男,臺北市信義區西村里松壽路11號,縣市政府,25.036072,121.56728,特優級,商業營業場所,男廁所,新光三越百貨股份有限公司,1
63000,63000020,西村里,A020000093,新光三越台北信義新天地A11館3樓東南女,臺北市信義區西村里松壽路11號,縣市政府,25.036072,121.56728,特優級,商業營業場所,女廁所,新光三越百貨股份有限公司,0
63000,63000020,西村里,A020000092,新光三越台北信義新天地A11館3樓東南男,臺北市信義區西村里松壽路11號,縣市政府,25.036072,121.56728,特優級,商業營業場所,男廁所,新光三越百貨股份有限公司,1
63000,63000020,西村里,A020000091,新光三越台北信義新天地A11館2樓東北女,臺北市信義區西村里松壽路11號,縣市政府,25.036072,121.56728,特優級,商業營業場所,女廁所,新光三越百貨股份有限公司,0
63000,63000020,西村里,A020000090,新光三越台北信義新天地A11館2樓東北男,臺北市信義區西村里松壽路11號,縣市政府,25.036072,121.56728,特優級,商業營業場所,男廁所,新光三越百貨股份有限公司,0
63000,63000020,西村里,A020000089,新光三越台北信義新天地A11館2樓東南女,臺北市信義區西村里松壽路11號,縣市政府,25.036072,121.56728,特優級,商業營業場所,女廁所,新光三越百貨股份有限公司,0
63000,63000070,富福里,A070000387,萬華車站地下停車場無障礙兼親子,臺北市萬華區富福里西園路一段306巷1號,縣市政府,25.03349074,121.4997071,特優級,交通,無障礙廁所,好停企業有限公司,1
63000,63000070,富福里,A070000386,萬華車站地下停車場女,臺北市萬華區富福里西園路一段306巷1號,縣市政府,25.0334945,121.4997044,特優級,交通,女廁所,好停企業有限公司,0
63000,63000070,富福里,A070000385,萬華車站地下停車場男,臺北市萬華區富福里西園路一段306巷1號,縣市政府,25.03348831,121.4997018,特優級,交通,男廁所,好停企業有限公司,0
63000,63000050,龍福里,A050001917,南門市場2樓飲食區性別友善,臺北市中正區龍福里羅斯福路一段8號,縣市政府,25.03252372,121.5179622,特優級,商業營業場所,性別友善廁所,臺北市市場處,0
63000,63000050,龍福里,A050001916,南門市場2樓飲食區女,臺北市中正區龍福里羅斯福路一段8號,縣市政府,25.03252008,121.5179622,特優級,商業營業場所,女廁所,臺北市市場處,0
63000,63000050,龍福里,A050001915,南門市場2樓飲食區男,臺北市中正區龍福里羅斯福路一段8號,縣市政府,25.03252008,121.5179609,特優級,商業營業場所,男廁所,臺北市市場處,0
63000,63000050,龍福里,A050001914,南門市場2樓百貨區無障礙,臺北市中正區龍福里羅斯福路一段8號,縣市政府,25.03252129,121.5179569,特優級,商業營業場所,無障礙廁所,臺北市市場處,0
63000,63000050,龍福里,A050001913,南門市場2樓百貨區女,臺北市中正區龍福里羅斯福路一段8號,縣市政府,25.03252858,121.5179622,特優級,商業營業場所,女廁所,臺北市市場處,0
63000,63000050,龍福里,A050001912,南門市場2樓百貨區男,臺北市中正區龍福里羅斯福路一段8號,縣市政府,25.03252737,121.5179569,特優級,商業營業場所,男廁所,臺北市市場處,0
63000,63000050,龍福里,A050001911,南門市場1樓親子廁所,臺北市中正區龍福里羅斯福路一段8號,縣市政府,25.03251643,121.5179622,特優級,商業營業場所,親子廁所,臺北市市場處,0
63000,63000050,龍福里,A050001910,南門市場1樓無障礙,臺北市中正區龍福里羅斯福路一段8號,縣市政府,25.03252372,121.5179595,特優級,商業營業場所,無障礙廁所,臺北市市場處,0
63000,63000050,龍福里,A050001909,南門市場1樓女,臺北市中正區龍福里羅斯福路一段8號,縣市政府,25.03252858,121.5179569,特優級,商業營業場所,女廁所,臺北市市場處,0
63000,63000050,龍福里,A050001908,南門市場1樓男,臺北市中正區龍福里羅斯福路一段8號,縣市政府,25.03251886,121.5179569,特優級,商業營業場所,男廁所,臺北市市場處,0
63000,63000050,龍福里,A050001907,南門市場B1無障礙,臺北市中正區龍福里羅斯福路一段8號,縣市政府,25.03250914,121.5179676,特優級,商業營業場所,無障礙廁所,臺北市市場處,0
63000,63000050,龍福里,A050001906,南門市場B1女,臺北市中正區龍福里羅斯福路一段8號,縣市政府,25.032514,121.5179488,特優級,商業營業場所,女廁所,臺北市市場處,0
63000,63000050,龍福里,A050001905,南門市場B1男,臺北市中正區龍福里羅斯福路一段8號,縣市政府,25.03251643,121.5179569,特優級,商業營業場所,男廁所,臺北市市場處,0
63000,63000010,精忠里,A010000185,捷運松山機場站B1無障礙,臺北市松山區精忠里敦化北路338號,縣市政府,25.063161,121.55195,特優級,交通,無障礙廁所,臺北大眾捷運股份有限公司,0
63000,63000010,精忠里,A010000184,捷運松山機場站B2女,臺北市松山區精忠里敦化北路338號,縣市政府,25.063161,121.55195,特優級,交通,女廁所,臺北大眾捷運股份有限公司,0
63000,63000010,精忠里,A010000183,捷運松山機場站B2男,臺北市松山區精忠里敦化北路338號,縣市政府,25.063161,121.55195,特優級,交通,男廁所,臺北大眾捷運股份有限公司,0
63000,63000010,精忠里,A010000182,捷運松山機場站B1女,臺北市松山區精忠里敦化北路338號,縣市政府,25.063161,121.55195,特優級,交通,女廁所,臺北大眾捷運股份有限公司,0
63000,63000010,精忠里,A010000181,捷運松山機場站B1男,臺北市松山區精忠里敦化北路338號,縣市政府,25.063161,121.55195,特優級,交通,男廁所,臺北大眾捷運股份有限公司,0
63000,63000040,中吉里,A040000868,捷運松江南京站非付費區女,臺北市中山區中吉里松江路126號B1,縣市政府,25.052709,121.532765,特優級,交通,女廁所,臺北大眾捷運股份有限公司,0
63000,63000040,中吉里,A040000867,捷運松江南京站非付費區男,臺北市中山區中吉里松江路126號B1,縣市政府,25.052709,121.532765,特優級,交通,男廁所,臺北大眾捷運股份有限公司,0
63000,63000040,中吉里,A040000866,捷運松江南京站付費區女,臺北市中山區中吉里松江路126號B1,縣市政府,25.052709,121.532765,特優級,交通,女廁所,臺北大眾捷運股份有限公司,0
63000,63000040,中吉里,A040000865,捷運松江南京站付費區男,臺北市中山區中吉里松江路126號B1,縣市政府,25.052709,121.532765,特優級,交通,男廁所,臺北大眾捷運股份有限公司,0
63000,63000040,埤頭里,A040001355,大潤發中崙店B2無障礙,"臺北市中山區埤頭里'八德路二段308號B2(CITY LINK大樓)",縣市政府,25.04688,121.542559,特優級,商業營業場所,無障礙廁所,大潤發中崙店,1
63000,63000020,長春里,A020001119,公有永春市場男-女,臺北市信義區長春里虎林街89巷1號,縣市政府,25.04316781,121.5773463,特優級,商業營業場所,混合廁所,臺北市市場處,0
63000,63000020,五全里,A020001046,公有永吉市場男-女,臺北市信義區五全里永吉路278巷1弄30號,縣市政府,25.045029,121.574246,特優級,商業營業場所,混合廁所,臺北市市場處,0
63000,63000020,正和里,A020000643,公有光復市場男,臺北市信義區正和里臺北市信義區光復南路419巷146號,縣市政府,25.036242,121.560467,特優級,商業營業場所,男廁所,臺北市市場處,0
63000,63000010,慈祐里,A010000476,公有南松市場男廁,臺北市松山區慈祐里松山區塔悠路40號,縣市政府,25.050747,121.570899,特優級,商業營業場所,男廁所,臺北市市場處,0
63000,63000120,湖山里,A120001234,陽明山公園前山公園2號女廁,臺北市北投區湖山里臺北市北投區陽明山,縣市政府,25.151658,121.545921,特優級,公園,女廁所,公園路燈工程管理處花卉試驗中心,0
63000,63000120,湖山里,A120001233,陽明山公園前山公園2號男廁,臺北市北投區湖山里臺北市北投區陽明山,縣市政府,25.151658,121.545921,特優級,公園,男廁所,公園路燈工程管理處花卉試驗中心,0
63000,63000120,湖山里,A120001225,陽明山公園8號第二停車場男廁,臺北市北投區湖山里臺北市北投區陽明山,縣市政府,25.15466614,121.5454173,特優級,公園,男廁所,公園路燈工程管理處花卉試驗中心,0
63000,63000120,湖山里,A120001223,陽明山公園6號雙松亭男廁,臺北市北投區湖山里臺北市北投區陽明山,縣市政府,25.159579,121.539778,特優級,公園,男廁所,公園路燈工程管理處花卉試驗中心,0
63000,63000120,湖山里,A120001222,陽明山公園5號花鐘停車場左下側男廁,臺北市北投區湖山里臺北市北投區陽明山,縣市政府,25.158292,121.538898,特優級,公園,男廁所,公園路燈工程管理處花卉試驗中心,0
63000,63000120,湖山里,A120001219,陽明山公園3號小憩亭女廁,"臺北市北投區湖山里 臺北市北投區陽明山",縣市政府,25.158459,121.539616,特優級,公園,女廁所,公園路燈工程管理處花卉試驗中心,0
63000,63000120,湖山里,A120001218,陽明山公園3號小憩亭男廁,臺北市北投區湖山里臺北市北投區陽明山,縣市政府,25.158459,121.539616,特優級,公園,男廁所,公園路燈工程管理處花卉試驗中心,0
63000,63000120,湖山里,A120001217,陽明山公園2號明恥亭女廁,臺北市北投區湖山里臺北市北投區陽明山,縣市政府,25.15710852,121.5400797,特優級,公園,女廁所,公園路燈工程管理處花卉試驗中心,0
63000,63000070,青山里,A070000265,青山公園廣場男,臺北市萬華區青山里華西街15號,縣市政府,25.039497,121.498392,特優級,公園,男廁所,臺北市政府工務局公園路燈工程管理處,0
63000,63000060,斯文里,A060000721,樹德公園女,臺北市大同區斯文里大龍街90之10號前,縣市政府,25.067032,121.516499,特優級,公園,女廁所,臺北市政府工務局公園路燈工程管理處,0
63000,63000060,斯文里,A060000720,樹德公園男,臺北市大同區斯文里大龍街90之10號前,縣市政府,25.06715,121.516113,特優級,公園,男廁所,臺北市政府工務局公園路燈工程管理處,0
63000,63000060,蓬萊里,A060000629,蘭州公園無障礙,臺北市大同區蓬萊里蘭州街89巷前,縣市政府,25.06270387,121.5107417,特優級,公園,無障礙廁所,臺北市政府工務局公園路燈工程管理處,0
63000,63000060,延平里,A060000340,歸綏公園男,臺北市大同區延平里重慶北路及歸綏街口,縣市政府,25.049551,121.513699,特優級,公園,男廁所,臺北市政府工務局公園路燈工程管理處,0
63000,63000050,黎明里,A050001018,逸仙公園男,臺北市中正區黎明里中山北路、北平西路交叉口,縣市政府,25.046046,121.519469,特優級,公園,男廁所,臺北市政府工務局公園路燈工程管理處,0
63000,63000050,黎明里,A050001017,二二八和平公園3號懷寧街男,臺北市中正區黎明里懷寧街襄陽街公園路凱達格蘭大道,縣市政府,25.04300257,121.5143144,特優級,公園,男廁所,臺北市政府工務局公園路燈工程管理處,0
63000,63000050,黎明里,A050001016,二二八和平公園2號公園路男,臺北市中正區黎明里懷寧街襄陽街公園路凱達格蘭大道,縣市政府,25.04147648,121.5158433,特優級,公園,男廁所,臺北市政府工務局公園路燈工程管理處,0
63000,63000050,光復里,A050000985,中山堂地下停車場辦公室旁女,臺北市中正區光復里中華路、武昌街口,縣市政府,25.042316,121.509553,特優級,交通,女廁所,臺北市停車管理工程處,0
63000,63000050,光復里,A050000984,中山堂地下停車場辦公室旁男,臺北市中正區光復里中華路、武昌街口,縣市政府,25.042316,121.509553,特優級,交通,男廁所,臺北市停車管理工程處,0
63000,63000050,水源里,A050000001,公館計程車服務站男女,臺北市中正區水源里中正區汀洲路三段230巷15號,縣市政府,25.010311,121.532318,特優級,交通,混合廁所,臺北市公共運輸處,0
63000,63000040,金泰里,A040001197,濱江國中地下停車場男,臺北市中山區金泰里'樂群二路266巷1號地下,縣市政府,25.079539,121.561678,特優級,交通,男廁所,臺北市停車管理工程處,0
63000,63000040,康樂里,A040001196,林森公園地下停車場B3辦公室混合廁,臺北市中山區康樂里林森北路-南京東路口林森公園,縣市政府,25.052533,121.526444,特優級,交通,混合廁所,臺北市停車管理工程處,0
63000,63000040,康樂里,A040001195,林森公園地下停車場B2辦公室混合廁,臺北市中山區康樂里林森北路-南京東路口林森公園,縣市政府,25.052533,121.526444,特優級,交通,混合廁所,臺北市停車管理工程處,1
63000,63000040,康樂里,A040001194,林森公園地下停車場B1辦公室混合廁,臺北市中山區康樂里林森北路-南京東路口林森公園,縣市政府,25.052533,121.526444,特優級,交通,混合廁所,臺北市停車管理工程處,1
63000,63000040,康樂里,A040001193,林森公園地下停車場B3近欣欣混合廁,臺北市中山區康樂里林森北路-南京東路口林森公園,縣市政府,25.052533,121.526444,特優級,交通,混合廁所,臺北市停車管理工程處,0
63000,63000060,揚雅里,A060000718,大同社福中心女,臺北市大同區揚雅里昌吉街57號6樓之1,縣市政府,25.06602,121.515142,特優級,民眾洽公場所,女廁所,大同社福中心,0
63000,63000060,揚雅里,A060000717,大同社福中心男,臺北市大同區揚雅里昌吉街57號6樓之1,縣市政府,25.06602,121.515142,特優級,民眾洽公場所,男廁所,大同社福中心,0
63000,63000010,慈祐里,A010000548,松山慈祐宮無障礙,臺北市松山區慈祐里八德路四段761號,縣市政府,25.051058,121.577717,特優級,宗教禮儀場所,無障礙廁所,財團法人臺北市松山慈祐宮,0
63000,63000040,金泰里,A040001214,臺北時代廣場B棟1F無障礙,臺北市中山區金泰里樂群二路265巷18號,縣市政府,25.080524,121.560638,特優級,商業營業場所,無障礙廁所,臺北時代廣場管理委員會,0
63000,63000040,金泰里,A040001213,臺北時代廣場B棟1F女,臺北市中山區金泰里樂群二路265巷18號,縣市政府,25.080524,121.560638,特優級,商業營業場所,女廁所,臺北時代廣場管理委員會,0
63000,63000040,金泰里,A040001212,臺北時代廣場B棟1F男,臺北市中山區金泰里樂群二路265巷18號,縣市政府,25.080524,121.560638,特優級,商業營業場所,男廁所,臺北時代廣場管理委員會,0
63000,63000040,金泰里,A040001211,臺北時代廣場A棟1F無障礙,臺北市中山區金泰里樂群二路265巷18號,縣市政府,25.080524,121.560638,特優級,商業營業場所,無障礙廁所,臺北時代廣場管理委員會,0
63000,63000040,金泰里,A040001210,臺北時代廣場A棟1F女,臺北市中山區金泰里樂群二路265巷18號,縣市政府,25.080524,121.560638,特優級,商業營業場所,女廁所,臺北時代廣場管理委員會,0
63000,63000040,金泰里,A040001209,臺北時代廣場A棟1F男,臺北市中山區金泰里樂群二路265巷18號,縣市政府,25.080524,121.560638,特優級,商業營業場所,男廁所,臺北時代廣場管理委員會,0
63000,63000110,三玉里,A110001425,臺灣士林地方檢察署2F東側女,臺北市士林區士東路190號,司法院,25.111822,121.533317,特優級,,女廁所,法務部,0
63000,63000110,三玉里,A110001424,臺灣士林地方檢察署5F西側女,臺北市士林區士東路190號,司法院,25.111822,121.533317,特優級,,女廁所,法務部,0
63000,63000110,三玉里,A110001423,臺灣士林地方檢察署5F西側男,臺北市士林區士東路190號,司法院,25.111822,121.533317,特優級,,男廁所,法務部,0
63000,63000110,三玉里,A110001422,臺灣士林地方檢察署5F東側無障礙,臺北市士林區士東路190號,司法院,25.111822,121.533317,特優級,,無障礙廁所,法務部,0
63000,63000110,三玉里,A110001421,臺灣士林地方檢察署5F東側女,臺北市士林區士東路190號,司法院,25.111822,121.533317,特優級,,女廁所,法務部,0
63000,63000110,三玉里,A110001420,臺灣士林地方檢察署5F東側男,臺北市士林區士東路190號,司法院,25.111822,121.533317,特優級,,男廁所,法務部,0
63000,63000010,中華里,A010000367,台北長庚紀念醫院後棟12樓女,臺北市松山區中華里敦化北路199號,縣市政府,25.055508,121.549618,特優級,社福機構、集會場所,女廁所,財團法人長庚紀念醫院,0
63000,63000010,中華里,A010000366,台北長庚紀念醫院後棟12樓男,臺北市松山區中華里敦化北路199號,縣市政府,25.055508,121.549618,特優級,社福機構、集會場所,男廁所,財團法人長庚紀念醫院,0
63000,63000010,中華里,A010000365,台北長庚紀念醫院後棟9樓無障礙,"臺北市松山區中華里(02) 2719-7271",縣市政府,25.055508,121.549618,特優級,社福機構、集會場所,無障礙廁所,財團法人長庚紀念醫院,0
63000,63000010,中華里,A010000364,台北長庚紀念醫院後棟9樓女,臺北市松山區中華里敦化北路199號,縣市政府,25.055508,121.549618,特優級,社福機構、集會場所,女廁所,財團法人長庚紀念醫院,0
63000,63000010,中華里,A010000363,台北長庚紀念醫院後棟7樓無障礙,臺北市松山區中華里敦化北路199號,縣市政府,25.055508,121.549618,特優級,社福機構、集會場所,無障礙廁所,財團法人長庚紀念醫院,0
63000,63000010,中華里,A010000362,台北長庚紀念醫院後棟7樓女,臺北市松山區中華里敦化北路199號,縣市政府,25.055508,121.549618,特優級,社福機構、集會場所,女廁所,財團法人長庚紀念醫院,0
63000,63000010,中華里,A010000361,台北長庚紀念醫院後棟6樓女,臺北市松山區中華里敦化北路199號,縣市政府,25.055508,121.549618,特優級,社福機構、集會場所,女廁所,財團法人長庚紀念醫院,0
63000,63000010,中華里,A010000360,台北長庚紀念醫院後棟5樓女,臺北市松山區中華里敦化北路199號,縣市政府,25.055508,121.549618,特優級,社福機構、集會場所,女廁所,財團法人長庚紀念醫院,0
63000,63000010,中華里,A010000359,台北長庚紀念醫院後棟4樓女,臺北市松山區中華里敦化北路199號,縣市政府,25.055508,121.549618,特優級,社福機構、集會場所,女廁所,財團法人長庚紀念醫院,0
63000,63000010,中華里,A010000358,台北長庚紀念醫院後棟2樓女,臺北市松山區中華里敦化北路199號,縣市政府,25.055508,121.549618,特優級,社福機構、集會場所,女廁所,財團法人長庚紀念醫院,0
63000,63000010,中華里,A010000357,台北長庚紀念醫院前棟12樓無障礙,臺北市松山區中華里敦化北路199號,縣市政府,25.055508,121.549618,特優級,社福機構、集會場所,無障礙廁所,財團法人長庚紀念醫院,0
63000,63000100,湖元里,A100000941,內湖運動公園無障礙,臺北市內湖區湖元里舊宗路二段2號,縣市政府,25.06803614,121.5734664,特優級,公園,無障礙廁所,臺北市政府工務局公園路燈工程管理處,0
63000,63000070,富福里,A070000464,臺北市勞動力重建運用處5F男廁,臺北市萬華區富福里艋舺大道101號,縣市政府,25.033339,121.501472,特優級,民眾洽公場所,男廁所,臺北市勞動局,0
63000,63000070,富福里,A070000463,臺北市勞動力重建運用處4F無障礙廁所,臺北市萬華區富福里艋舺大道101號,縣市政府,25.033339,121.501472,特優級,民眾洽公場所,無障礙廁所,臺北市勞動局,0
63000,63000070,富福里,A070000462,臺北市勞動力重建運用處4F女廁,臺北市萬華區富福里艋舺大道101號,縣市政府,25.033339,121.501472,特優級,民眾洽公場所,女廁所,臺北市勞動局,0
63000,63000070,富福里,A070000461,臺北市勞動力重建運用處4F男廁,臺北市萬華區富福里艋舺大道101號,縣市政府,25.033339,121.501472,特優級,民眾洽公場所,男廁所,臺北市勞動局,0
63000,63000050,南門里,A050000394,捷運小南門站親子廁所,臺北市中正區南門里愛國西路22號地下一層,縣市政府,25.03532135,121.5110538,特優級,交通,親子廁所,臺北大眾捷運股份有限公司,0
63000,63000070,綠堤里,A070000573,公有環南綜合市場B1男廁,臺北市萬華區綠堤里環河南路二段245號,縣市政府,25.029853,121.489781,特優級,商業營業場所,男廁所,臺北市市場處,0
63000,63000070,綠堤里,A070000572,公有環南綜合市場乙區B2無障礙,臺北市萬華區綠堤里環河南路二段245號,縣市政府,25.029853,121.489781,特優級,商業營業場所,無障礙廁所,臺北市市場處,0
63000,63000070,綠堤里,A070000571,公有環南綜合市場乙區B2女廁,臺北市萬華區綠堤里環河南路二段245號,縣市政府,25.029852,121.48978,特優級,商業營業場所,女廁所,臺北市市場處,0
63000,63000070,綠堤里,A070000570,公有環南綜合市場乙區B2男廁,臺北市萬華區綠堤里環河南路二段245號,縣市政府,25.029853,121.489781,特優級,商業營業場所,男廁所,臺北市市場處,0
63000,63000070,綠堤里,A070000569,公有環南綜合市場乙區116室前親子廁所,臺北市萬華區綠堤里環河南路二段245號,縣市政府,25.029852,121.48978,特優級,商業營業場所,親子廁所,臺北市市場處,1
63000,63000070,綠堤里,A070000568,公有環南綜合市場乙區112室前親子廁所,臺北市萬華區綠堤里環河南路二段245號,縣市政府,25.029853,121.489781,特優級,商業營業場所,無障礙廁所,臺北市市場處,1
63000,63000070,綠堤里,A070000567,公有環南綜合市場乙區112室前女廁,臺北市萬華區綠堤里環河南路二段245號,縣市政府,25.029852,121.48978,特優級,商業營業場所,女廁所,臺北市市場處,0
63000,63000070,綠堤里,A070000566,公有環南綜合市場乙區112室前男廁,臺北市萬華區綠堤里環河南路二段245號,縣市政府,25.029852,121.48978,特優級,商業營業場所,男廁所,臺北市市場處,0
63000,63000070,綠堤里,A070000565,公有環南綜合市場乙區110室前女廁,臺北市萬華區綠堤里環河南路二段245號,縣市政府,25.029853,121.489781,特優級,商業營業場所,女廁所,臺北市市場處,0
63000,63000070,綠堤里,A070000564,公有環南綜合市場乙區2F無障礙,臺北市萬華區綠堤里環河南路二段245號,縣市政府,25.029852,121.48978,特優級,商業營業場所,無障礙廁所,臺北市市場處,0
63000,63000070,綠堤里,A070000558,公有環南綜合市場乙區4F無障礙,臺北市萬華區綠堤里環河南路二段245號,縣市政府,25.029852,121.48978,特優級,商業營業場所,無障礙廁所,臺北市市場處,0
63000,63000070,綠堤里,A070000557,公有環南綜合市場乙區4F女廁,臺北市萬華區綠堤里環河南路二段245號,縣市政府,25.02964626,121.4901209,特優級,商業營業場所,女廁所,臺北市市場處,0
63000,63000070,綠堤里,A070000556,公有環南綜合市場乙區4F男廁,臺北市萬華區綠堤里環河南路二段245號,縣市政府,25.029852,121.48978,特優級,商業營業場所,男廁所,臺北市市場處,0
63000,63000070,綠堤里,A070000540,公有環南綜合市場乙區110室前男廁,臺北市萬華區綠堤里環河南路二段245號,縣市政府,25.029853,121.489781,特優級,商業營業場所,男廁所,臺北市市場處,0
63000,63000060,揚雅里,A060000692,公有蘭州市場男,臺北市大同區揚雅里昌吉街55號,縣市政府,25.066015,121.515608,特優級,商業營業場所,男廁所,臺北市市場處,0
63000,63000060,延平里,A060000342,歸綏公園無障礙,臺北市大同區延平里重慶北路及歸綏街口,縣市政府,25.049552,121.513699,特優級,公園,無障礙廁所,臺北市政府工務局公園路燈工程管理處,1
63000,63000060,蓬萊里,A060000631,蘭州公園女,臺北市大同區蓬萊里蘭州街89巷前,縣市政府,25.064331,121.515374,特優級,公園,女廁所,臺北市政府工務局公園路燈工程管理處,0
63000,63000060,蓬萊里,A060000630,蘭州公園男,臺北市大同區蓬萊里蘭州街89巷前,縣市政府,25.064331,121.515374,特優級,公園,男廁所,臺北市政府工務局公園路燈工程管理處,0
63000,63000030,臥龍里,A030001127,大安區健康服務中心1F無障礙,臺北市大安區臥龍里辛亥路三段15號,縣市政府,25.02153844,121.5443552,特優級,民眾洽公場所,無障礙廁所,臺北市大安區健康服務中心,0
63000,63000020,西村里,A020000276,微風南山百貨A15-7F北側女,臺北市信義區西村里松智路17號,縣市政府,25.034434,121.565774,特優級,商業營業場所,女廁所,微風置地股份有限公司南山分公司,0
63000,63000020,西村里,A020000269,微風南山百貨A18-2F男,臺北市信義區西村里松智路17號,縣市政府,25.034434,121.565774,特優級,商業營業場所,男廁所,微風置地股份有限公司南山分公司,1
63000,63000020,西村里,A020000268,微風南山百貨A18-B1無障礙,臺北市信義區西村里松智路17號,縣市政府,25.034434,121.565774,特優級,商業營業場所,無障礙廁所,微風置地股份有限公司南山分公司,1
63000,63000020,西村里,A020000267,微風南山百貨A18-B1男,臺北市信義區西村里松智路17號,縣市政府,25.034434,121.565774,特優級,商業營業場所,男廁所,微風置地股份有限公司南山分公司,1
63000,63000020,西村里,A020000266,微風南山百貨A18-B2無障礙,臺北市信義區西村里松智路17號,縣市政府,25.034434,121.565774,特優級,商業營業場所,無障礙廁所,微風置地股份有限公司南山分公司,1
63000,63000020,西村里,A020000265,微風南山百貨A18-B2女,臺北市信義區西村里松智路17號,縣市政府,25.034434,121.565774,特優級,商業營業場所,女廁所,微風置地股份有限公司南山分公司,0
63000,63000020,西村里,A020000264,微風南山百貨A18-B2男,臺北市信義區西村里松智路17號,縣市政府,25.034434,121.565774,特優級,商業營業場所,男廁所,微風置地股份有限公司南山分公司,0
63000,63000020,西村里,A020000263,微風南山百貨A15-7F北側無障礙,臺北市信義區西村里松智路17號,縣市政府,25.034434,121.565774,特優級,商業營業場所,無障礙廁所,微風置地股份有限公司南山分公司,1
63000,63000020,西村里,A020000262,微風南山百貨A15-7F北側男,臺北市信義區西村里松智路17號,縣市政府,25.034434,121.565774,特優級,商業營業場所,男廁所,微風置地股份有限公司南山分公司,0
63000,63000020,西村里,A020000261,微風南山百貨A15-6F北側女,臺北市信義區西村里松智路17號,縣市政府,25.034434,121.565774,特優級,商業營業場所,女廁所,微風置地股份有限公司南山分公司,1
63000,63000020,西村里,A020000252,微風南山百貨A15-5F東南側男,臺北市信義區西村里松智路17號,縣市政府,25.034434,121.565774,特優級,商業營業場所,男廁所,微風置地股份有限公司南山分公司,0
63000,63000020,西村里,A020000251,微風南山百貨A15-4F北無障礙,臺北市信義區西村里松智路17號,縣市政府,25.034434,121.565774,特優級,商業營業場所,無障礙廁所,微風置地股份有限公司南山分公司,1
63000,63000020,西村里,A020000250,微風南山百貨A15-4F北女,臺北市信義區西村里松智路17號,縣市政府,25.034434,121.565774,特優級,商業營業場所,女廁所,微風置地股份有限公司南山分公司,0
63000,63000020,西村里,A020000249,微風南山百貨A15-4F北男,臺北市信義區西村里松智路17號,縣市政府,25.034434,121.565774,特優級,商業營業場所,男廁所,微風置地股份有限公司南山分公司,0
63000,63000020,西村里,A020000248,微風南山百貨A15-3F北無障礙,臺北市信義區西村里松智路17號,縣市政府,25.034434,121.565774,特優級,商業營業場所,無障礙廁所,微風置地股份有限公司南山分公司,1
63000,63000020,西村里,A020000247,微風南山百貨A15-3F北女,臺北市信義區西村里松智路17號,縣市政府,25.034434,121.565774,特優級,商業營業場所,女廁所,微風置地股份有限公司南山分公司,0
63000,63000020,西村里,A020000246,微風南山百貨A15-3F北男,臺北市信義區西村里松智路17號,縣市政府,25.034434,121.565774,特優級,商業營業場所,男廁所,微風置地股份有限公司南山分公司,0
63000,63000020,西村里,A020000245,微風南山百貨A15-3F南女,臺北市信義區西村里松智路17號,縣市政府,25.034434,121.565774,特優級,商業營業場所,女廁所,微風置地股份有限公司南山分公司,1
63000,63000020,西村里,A020000244,微風南山百貨A15-3F南男,臺北市信義區西村里松智路17號,縣市政府,25.034434,121.565774,特優級,商業營業場所,男廁所,微風置地股份有限公司南山分公司,0
63000,63000020,西村里,A020000243,微風南山百貨A15-2F女,臺北市信義區西村里松智路17號,縣市政府,25.034434,121.565774,特優級,商業營業場所,女廁所,微風置地股份有限公司南山分公司,1
63000,63000050,東門里,A050001841,臺北市政府青年局1F無障礙,臺北市中正區東門里仁愛路一段17號,縣市政府,25.03901,121.52224,特優級,文化育樂活動場所,無障礙廁所,臺北市政府青年局,0
63000,63000080,景行里,A080000009,吉野家景美店男女,臺北市文山區景行里文山區景文街99號1樓,縣市政府,24.99088,121.541332,特優級,商業營業場所,混合廁所,台灣吉野家股份有限公司景美分公司,0
63000,63000090,九如里,A090000711,九如區民活動中心無障礙,臺北市南港區九如里研究院路三段68巷9號,縣市政府,25.0353,121.614304,特優級,社福機構、集會場所,無障礙廁所,南港區公所,0
63000,63000090,九如里,A090000710,九如區民活動中心女,臺北市南港區九如里研究院路三段68巷9號,縣市政府,25.0353,121.614304,特優級,社福機構、集會場所,女廁所,南港區公所,0
63000,63000090,九如里,A090000709,九如區民活動中心男,臺北市南港區九如里研究院路三段68巷9號,縣市政府,25.0353,121.614304,特優級,社福機構、集會場所,男廁所,南港區公所,0
63000,63000040,金泰里,A040001198,濱江國中地下停車場女,臺北市中山區金泰里'樂群二路266巷1號地下,縣市政府,25.079539,121.561678,特優級,交通,女廁所,臺北市停車管理工程處,0
63000,63000070,青山里,A070000312,龍山派出所無障礙,臺北市萬華區青山里桂林路135號,縣市政府,25.038601,121.499611,特優級,民眾洽公場所,無障礙廁所,臺北市政府警察局萬華分局,0
63000,63000070,青山里,A070000311,龍山派出所女廁,"臺北市萬華區青山里桂林路135 號",縣市政府,25.038601,121.499611,特優級,民眾洽公場所,女廁所,臺北市政府警察局萬華分局,0
63000,63000070,青山里,A070000310,龍山派出所男廁(含性別友善),臺北市萬華區青山里桂林路135號,縣市政府,25.038601,121.499611,特優級,民眾洽公場所,男廁所,臺北市政府警察局萬華分局,0
63000,63000010,中崙里,A010001014,微風廣場B1美食街無障礙,臺北市松山區中崙里復興南路一段39號,縣市政府,25.046129,121.544126,特優級,商業營業場所,無障礙廁所,微風廣場,0
63000,63000010,中崙里,A010001013,微風廣場GF麵包無障礙,臺北市松山區中崙里復興南路一段39號,縣市政府,25.046129,121.544126,特優級,商業營業場所,無障礙廁所,微風廣場,0
63000,63000010,中崙里,A010001012,微風廣場GF珠寶無障礙,臺北市松山區中崙里復興南路一段39號,縣市政府,25.046129,121.544126,特優級,商業營業場所,無障礙廁所,微風廣場,0
63000,63000010,中崙里,A010001011,微風廣場2樓統一星巴克對面性別友善,臺北市松山區中崙里復興南路一段39號,縣市政府,25.046129,121.544126,特優級,商業營業場所,性別友善廁所,微風廣場,0
63000,63000010,中崙里,A010001010,微風廣場3樓性別友善,臺北市松山區中崙里復興南路一段39號,縣市政府,25.046129,121.544126,特優級,商業營業場所,性別友善廁所,微風廣場,0
63000,63000010,中崙里,A010001009,微風廣場4樓性別友善,臺北市松山區中崙里復興南路一段39號,縣市政府,25.046129,121.544126,特優級,商業營業場所,性別友善廁所,微風廣場,0
63000,63000010,中崙里,A010001008,微風廣場5樓性別友善,臺北市松山區中崙里02-6600-8888,縣市政府,25.046129,121.544126,特優級,商業營業場所,性別友善廁所,微風廣場,0
63000,63000010,中崙里,A010001007,微風廣場6樓性別友善,臺北市松山區中崙里復興南路一段39號,縣市政府,25.046129,121.544126,特優級,商業營業場所,性別友善廁所,微風廣場,0
63000,63000010,中崙里,A010001006,微風廣場7樓性別友善,臺北市松山區中崙里復興南路一段39號,縣市政府,25.046129,121.544126,特優級,商業營業場所,性別友善廁所,微風廣場,0
63000,63000070,綠堤里,A070000550,公有環南綜合市場乙區6F男廁,臺北市萬華區綠堤里環河南路二段245號,縣市政府,25.029852,121.48978,特優級,商業營業場所,男廁所,臺北市市場處,0
63000,63000070,綠堤里,A070000549,公有環南綜合市場乙區RF無障礙,臺北市萬華區綠堤里環河南路二段245號,縣市政府,25.029852,121.48978,特優級,商業營業場所,無障礙廁所,臺北市市場處,0
63000,63000070,綠堤里,A070000548,公有環南綜合市場乙區RF女廁,臺北市萬華區綠堤里環河南路二段245號,縣市政府,25.029852,121.48978,特優級,商業營業場所,女廁所,臺北市市場處,0
63000,63000070,綠堤里,A070000547,公有環南綜合市場乙區RF男廁,臺北市萬華區綠堤里環河南路二段245號,縣市政府,25.029852,121.48978,特優級,商業營業場所,男廁所,臺北市市場處,0
63000,63000070,綠堤里,A070000546,公有環南綜合市場甲區B2無障礙,臺北市萬華區綠堤里環河南路二段245號,縣市政府,25.029852,121.48978,特優級,商業營業場所,無障礙廁所,臺北市市場處,0
63000,63000070,綠堤里,A070000545,公有環南綜合市場甲區B2女廁,臺北市萬華區綠堤里環河南路二段245號,縣市政府,25.029852,121.48978,特優級,商業營業場所,女廁所,臺北市市場處,0
63000,63000020,中行里,A020001297,松山慈惠堂側邊女,臺北市信義區中行里福德街251巷33號,縣市政府,25.036543,121.587508,特優級,宗教禮儀場所,女廁所,松山慈惠堂,0
63000,63000020,中行里,A020001296,松山慈惠堂無障礙,臺北市信義區中行里福德街251巷33號,縣市政府,25.036543,121.587508,特優級,宗教禮儀場所,無障礙廁所,松山慈惠堂,0
63000,63000020,中坡里,A020001249,松山奉天宮無障礙,臺北市信義區中坡里福德街221巷12號,縣市政府,25.037506,121.584874,特優級,宗教禮儀場所,無障礙廁所,松山奉天宮,0
63000,63000010,介壽里,A010000157,民生立體停車場民生入口1樓女,臺北市松山區介壽里民生東路五段84號,縣市政府,25.058425,121.559479,特優級,交通,女廁所,臺北市停車管理工程處,0
63000,63000010,鵬程里,A010000556,西松高中地下停車場男女無障礙,臺北市松山區鵬程里健康路325巷19弄1號B1,縣市政府,25.05585,121.56695,特優級,交通,混合廁所,臺北市停車管理工程處,0
63000,63000110,菁山里,A110001883,陽明山國家公園冷水坑遊客服務站親子,"臺北市士林區菁山里冷水坑地質景觀區遊客服務中心 ",內政部,25.165603,121.563927,特優級,觀光地區及風景區,親子廁所,內政部國家公園署陽明山國家公園管理處,0
63000,63000110,菁山里,A110001882,陽明山國家公園冷水坑遊客服務站無障礙,"臺北市士林區菁山里冷水坑地質景觀區遊客服務中心 ",內政部,25.165424,121.563911,特優級,觀光地區及風景區,無障礙廁所,內政部國家公園署陽明山國家公園管理處,0
63000,63000120,林泉里,A120000209,陽明山國家公園龍鳳谷親水公園無障礙,臺北市北投區林泉里臺北市北投區小油坑地質景觀區遊客服務中心,內政部,25.14316,121.526358,特優級,觀光地區及風景區,無障礙廁所,內政部國家公園署陽明山國家公園管理處,0
63000,63000120,林泉里,A120000759,陽明山國家公園龍鳳谷遊客服務站無障礙,臺北市北投區林泉里臺北市北投區小油坑地質景觀區遊客服務中心,內政部,25.14316,121.526358,特優級,觀光地區及風景區,無障礙廁所,內政部國家公園署陽明山國家公園管理處,0
63000,63000120,湖田里,A120001260,陽明山國家公園小油坑地質景觀區無障礙廁所,臺北市北投區湖田里臺北市北投區小油坑地質景觀區遊客服務中心,內政部,25.176461,121.546882,特優級,觀光地區及風景區,親子廁所,內政部國家公園署陽明山國家公園管理處,0
63000,63000120,湖田里,A120001259,陽明山國家公園小油坑橋停車場女廁,臺北市北投區湖田里臺北市北投區小油坑地質景觀區遊客服務中心,內政部,25.179072,121.54438,特優級,觀光地區及風景區,無障礙廁所,內政部國家公園署陽明山國家公園管理處,0
63000,63000110,福德里,A110000241,承德公園地下停車場無障礙,臺北市士林區福德里基河路150號,臺北市政府交通局,25.089929,121.522257,特優級,交通,無障礙廁所,臺北市停車管理工程處,0
63000,63000040,中央里,A040001051,國稅局中北稽徵所2樓無障礙,臺北市中山區中央里'松江路219號1樓,財政部,25.057531,121.533336,特優級,民眾洽公場所,無障礙廁所,財政部臺北市國稅局,0
63000,63000040,中央里,A040001050,國稅局中北稽徵所2樓親子,臺北市中山區中央里'松江路219號1樓,財政部,25.057531,121.533336,特優級,民眾洽公場所,親子廁所,財政部臺北市國稅局,1
63000,63000120,清江里,A120000583,大豐公園地下停車場無障礙,臺北市北投區清江里臺北市北投區大興街145號,縣市政府,25.131159,121.504125,特優級,交通,無障礙廁所,臺北市停車管理工程處,0
63000,63000050,富水里,A050000092,三軍總醫院汀州院區103-2-105診間旁無障礙廁所,臺北市中正區富水里中正區汀州路三段40號,國防部,25.0165,121.529891,特優級,社福機構、集會場所,無障礙廁所,三軍總醫院汀州院區,0
63000,63000090,三重里,A090000252,南港展覽館0101女,臺北市南港區三重里經貿二路1號,經濟部,25.056376,121.617345,特優級,文化育樂活動場所,女廁所,中華民國對外貿易協發展協會,0
63000,63000090,三重里,A090000251,南港展覽館0101男,臺北市南港區三重里經貿二路1號,經濟部,25.056376,121.617345,特優級,文化育樂活動場所,男廁所,中華民國對外貿易協發展協會,0
63000,63000090,三重里,A090000250,南港展覽館0194無障礙,臺北市南港區三重里經貿二路1號,經濟部,25.056376,121.617345,特優級,文化育樂活動場所,無障礙廁所,中華民國對外貿易協發展協會,0
63000,63000090,三重里,A090000249,南港展覽館0194女,臺北市南港區三重里經貿二路1號,經濟部,25.056376,121.617345,特優級,文化育樂活動場所,女廁所,中華民國對外貿易協發展協會,0
63000,63000090,三重里,A090000248,南港展覽館0194男,臺北市南港區三重里經貿二路1號,經濟部,25.056376,121.617345,特優級,文化育樂活動場所,男廁所,中華民國對外貿易協發展協會,0
63000,63000090,三重里,A090000247,南港展覽館0186無障礙,臺北市南港區三重里經貿二路1號,經濟部,25.056376,121.617345,特優級,文化育樂活動場所,無障礙廁所,中華民國對外貿易協發展協會,0
63000,63000090,三重里,A090000246,南港展覽館0186女,臺北市南港區三重里經貿二路1號,經濟部,25.056376,121.617345,特優級,文化育樂活動場所,女廁所,中華民國對外貿易協發展協會,0
63000,63000090,三重里,A090000245,南港展覽館0186男,臺北市南港區三重里經貿二路1號,經濟部,25.056376,121.617345,特優級,文化育樂活動場所,男廁所,中華民國對外貿易協發展協會,0
63000,63000090,三重里,A090000244,南港展覽館0177無障礙,臺北市南港區三重里經貿二路1號,經濟部,25.056376,121.617345,特優級,文化育樂活動場所,無障礙廁所,中華民國對外貿易協發展協會,0
63000,63000090,三重里,A090000243,南港展覽館0177女,臺北市南港區三重里經貿二路1號,經濟部,25.056376,121.617345,特優級,文化育樂活動場所,女廁所,中華民國對外貿易協發展協會,0
63000,63000100,港墘里,A100000193,洲子立體停車場4F女,臺北市內湖區港墘里光路513巷22弄2號,縣市政府,25.079457,121.569548,特優級,交通,女廁所,臺北市停車管理工程處,0
63000,63000070,西門里,A070000155,三商巧福峨眉店男女,臺北市萬華區西門里峨眉街19號,縣市政府,25.043475,121.507457,特優級,商業營業場所,混合廁所,三商行股份有限公司峨嵋分公司,0
63000,63000030,住安里,A030000966,捷運大安站淡水信義線大廳層女,臺北市大安區住安里信義路三段180號,縣市政府,25.033128,121.544002,特優級,交通,女廁所,臺北大眾捷運股份有限公司,0
63000,63000070,萬壽里,A070000078,爭鮮西門店男女,臺北市萬華區萬壽里漢中街42號2F,縣市政府,25.044225,121.507346,特優級,商業營業場所,混合廁所,爭鮮股份有限公司南京西門分公司,0
63000,63000050,南門里,A050000396,三商巧福延平店男女,臺北市中正區南門里延平南路187之1號,縣市政府,25.034054,121.507535,特優級,商業營業場所,混合廁所,三商行股份有限公司延平分公司,0
63000,63000060,隆和里,A060000576,捷運大橋頭站(新蘆線)付費區親子,臺北市大同區隆和里民權西路223號,縣市政府,25.063784,121.511354,特優級,交通,親子廁所,臺北大眾捷運股份有限公司,0
63000,63000050,幸福里,A050001499,"摩斯漢堡善導寺店 男女",臺北市中正區幸福里忠孝東路一段178號and178號地下,縣市政府,25.043847,121.526484,特優級,商業營業場所,混合廁所,安心食品服務股份有限公司,0
63000,63000050,幸福里,A050001498,吉野家忠孝東路店男女,臺北市中正區幸福里忠孝東路一段174號,縣市政府,25.043872,121.526377,特優級,商業營業場所,混合廁所,台灣吉野家股份有限公司,0
63000,63000020,景新里,A020001332,捷運台北101世貿站站內女,臺北市信義區景新里信義路五段20號,縣市政府,25.032703,121.563709,特優級,交通,女廁所,臺北大眾捷運股份有限公司,0
63000,63000030,正聲里,A030001438,麥當勞台北光復店男,臺北市大安區正聲里光復南路286號,縣市政府,25.039542,121.557441,特優級,商業營業場所,男廁所,台灣麥當勞餐廳股份有限公司,0
63000,63000030,正聲里,A030001437,陶板屋台北光復南店男女,臺北市大安區正聲里光復南路286號,縣市政府,25.039542,121.557441,特優級,商業營業場所,混合廁所,王品餐飲股份有限公司陶板屋台北光復南分公司,0
63000,63000020,景新里,A020001336,捷運台北101世貿站站內男,臺北市信義區景新里信義路五段20號,縣市政府,25.032703,121.563709,特優級,交通,男廁所,臺北大眾捷運股份有限公司,1
63000,63000060,建明里,A060000098,臺北轉運站1F男,臺北市大同區建明里市民大道一段209號,縣市政府,25.048893,121.51835,特優級,交通,男廁所,萬達通實業股份有限公司,0
63000,63000030,仁愛里,A030001467,西雅圖咖啡忠孝延吉店男,臺北市大安區仁愛里忠孝東路四段250號,縣市政府,25.041198,121.554284,特優級,商業營業場所,男廁所,馥餘實業股份有限公司忠孝延吉分公司,0
63000,63000030,古莊里,A030000486,統一星巴克和平門市男女,臺北市大安區古莊里和平東路一段2號,縣市政府,25.026824,121.522907,特優級,商業營業場所,混合廁所,統一星巴克股份有限公司,0
63000,63000060,保安里,A060000836,摩斯漢堡台北重慶店男女,臺北市大同區保安里重慶北路三段271號,縣市政府,25.072192,121.514017,特優級,商業營業場所,混合廁所,安心食品服務股份有限公司台北重慶分公司,0
63000,63000060,建明里,A060000122,麥當勞台北承德分公司2樓男,臺北市大同區建明里承德路一段34號,縣市政府,25.0507299,121.5167177,特優級,商業營業場所,男廁所,台灣麥當勞餐廳股份有限公司,0
63000,63000060,雙連里,A060000384,摩斯漢堡雙連店男女,臺北市大同區雙連里民生西路77號,縣市政府,25.058019,121.519732,特優級,商業營業場所,混合廁所,安心食品服務股份有限公司雙連分公司,0
63000,63000060,雙連里,A060000383,拿坡里民生店男女,臺北市大同區雙連里民生西路83號,縣市政府,25.057747,121.519582,特優級,商業營業場所,混合廁所,拿帕里股份有限公司民生西路分公司,0
63000,63000110,福林里,A110000113,統一星巴克士捷門市男女,臺北市士林區福林里中正路239號,統一星巴克股份有限公司,25.095151,121.525871,特優級,商業營業場所,混合廁所,統一星巴克股份有限公司,0
63000,63000100,湖元里,A100000938,台灣中油內湖加油站無障礙,臺北市內湖區湖元里民權東路六段50號,經濟部,25.06823731,121.5839888,特優級,商業營業場所,無障礙廁所,台灣中油股份有限公司,0
63000,63000100,湖元里,A100000937,台灣中油內湖加油站女廁,臺北市內湖區湖元里民權東路六段50號,經濟部,25.06823853,121.5839821,特優級,商業營業場所,女廁所,台灣中油股份有限公司,0
63000,63000050,水源里,A050000006,公有水源市場1樓無障礙,臺北市中正區水源里中正區羅斯福路四段92號,縣市政府,25.013761,121.53501,特優級,商業營業場所,無障礙廁所,臺北市市場處,0
63000,63000050,水源里,A050000005,公有水源市場2樓女,臺北市中正區水源里中正區羅斯福路四段92號,縣市政府,25.013761,121.53501,特優級,商業營業場所,女廁所,臺北市市場處,0
63000,63000110,福林里,A110000092,福林公園地下停車場無障礙,臺北市士林區福林里中正路17號,縣市政府,25.095856,121.530525,特優級,交通,無障礙廁所,臺北市停車管理工程處,0
63000,63000110,富光里,A110000815,海光公園地下停車場無障礙,臺北市士林區富光里葫蘆街83號,臺北市政府交通局停車管理處,25.08132,121.508319,特優級,交通,無障礙廁所,臺北市停車管理工程處,0
63000,63000050,黎明里,A050001204,新光三越台北站前店7F無障礙,臺北市中正區黎明里忠孝西路一段66號,縣市政府,25.046226,121.515302,特優級,商業營業場所,無障礙廁所,新光三越百貨(站前店),0
63000,63000050,黎明里,A050001203,新光三越台北站前店6F無障礙,臺北市中正區黎明里忠孝西路一段66號,縣市政府,25.046226,121.515302,特優級,商業營業場所,無障礙廁所,新光三越百貨(站前店),0
63000,63000050,黎明里,A050001202,新光三越台北站前店5F無障礙,臺北市中正區黎明里忠孝西路一段66號,縣市政府,25.046226,121.515302,特優級,商業營業場所,無障礙廁所,新光三越百貨(站前店),0
63000,63000050,黎明里,A050001201,新光三越台北站前店4F無障礙,臺北市中正區黎明里忠孝西路一段66號,縣市政府,25.046226,121.515302,特優級,商業營業場所,無障礙廁所,新光三越百貨(站前店),0
63000,63000020,興雅里,A020000812,台灣中油忠孝東路加油站無障礙,臺北市信義區興雅里忠孝東路五段69號,經濟部,25.041409,121.566964,特優級,商業營業場所,無障礙廁所,台灣中油股份有限公司,0
63000,63000020,興雅里,A020000811,台灣中油忠孝東路加油站女,臺北市信義區興雅里忠孝東路五段69號,經濟部,25.041409,121.566964,特優級,商業營業場所,女廁所,台灣中油股份有限公司,0
63000,63000040,金泰里,A040001242,美麗華百樂園本館3樓南女,臺北市中山區金泰里'敬業三路20號,縣市政府,25.082926,121.556712,特優級,商業營業場所,女廁所,美麗華百樂園,0
63000,63000040,金泰里,A040001241,美麗華百樂園本館2樓北女,臺北市中山區金泰里'敬業三路20號,縣市政府,25.082926,121.556712,特優級,商業營業場所,女廁所,美麗華百樂園,0
63000,63000040,金泰里,A040001240,美麗華百樂園本館2樓北男,臺北市中山區金泰里'敬業三路20號,縣市政府,25.082926,121.556712,特優級,商業營業場所,男廁所,美麗華百樂園,0
63000,63000120,立農里,A120000521,臺北市立圖書館吉利分館7F無障礙,臺北市北投區立農里臺北市北投區立農街一段366號,縣市政府,25.119342,121.508394,特優級,文化育樂活動場所,無障礙廁所,臺北市立圖書館,0
63000,63000120,立農里,A120000520,臺北市立圖書館吉利分館6F無障礙,臺北市北投區立農里臺北市北投區立農街一段366號,縣市政府,25.119342,121.508394,特優級,文化育樂活動場所,無障礙廁所,臺北市立圖書館,0
63000,63000120,立農里,A120000519,臺北市立圖書館吉利分館5F無障礙,臺北市北投區立農里臺北市北投區立農街一段366號,縣市政府,25.119342,121.508394,特優級,文化育樂活動場所,無障礙廁所,臺北市立圖書館,0
63000,63000050,黎明里,A050001141,麥當勞台北公園店無障礙,"臺北市中正區黎明里公園路30號之1壹樓,30號之1貳樓",縣市政府,25.044291,121.516797,特優級,商業營業場所,無障礙廁所,台灣麥當勞餐廳股份有限公司,0
63000,63000050,梅花里,A050001403,三創生活園區6F男,臺北市中正區梅花里市民大道三段2號,縣市政府,25.045632,121.531021,特優級,商業營業場所,男廁所,三創生活園區,0
63000,63000050,梅花里,A050001402,三創生活園區5F親子,臺北市中正區梅花里市民大道三段2號,縣市政府,25.045632,121.531021,特優級,商業營業場所,親子廁所,三創生活園區,0
63000,63000050,梅花里,A050001401,三創生活園區5F女,臺北市中正區梅花里市民大道三段2號,縣市政府,25.045632,121.531021,特優級,商業營業場所,女廁所,三創生活園區,0
63000,63000050,梅花里,A050001400,三創生活園區5F男,臺北市中正區梅花里市民大道三段2號,縣市政府,25.045632,121.531021,特優級,商業營業場所,男廁所,三創生活園區,0
63000,63000050,梅花里,A050001399,三創生活園區4F無障礙,臺北市中正區梅花里市民大道三段2號,縣市政府,25.045632,121.531021,特優級,商業營業場所,無障礙廁所,三創生活園區,0
63000,63000050,梅花里,A050001398,三創生活園區4F女,臺北市中正區梅花里市民大道三段2號,縣市政府,25.045632,121.531021,特優級,商業營業場所,女廁所,三創生活園區,0
63000,63000050,梅花里,A050001396,三創生活園區4F男,臺北市中正區梅花里市民大道三段2號,縣市政府,25.045632,121.531021,特優級,商業營業場所,男廁所,三創生活園區,0
63000,63000050,梅花里,A050001395,三創生活園區3F親子,臺北市中正區梅花里市民大道三段2號,縣市政府,25.045632,121.531021,特優級,商業營業場所,親子廁所,三創生活園區,0
63000,63000050,梅花里,A050001394,三創生活園區3F女,臺北市中正區梅花里市民大道三段2號,縣市政府,25.045632,121.531021,特優級,商業營業場所,女廁所,三創生活園區,0
63000,63000050,梅花里,A050001393,三創生活園區3F男,臺北市中正區梅花里市民大道三段2號,縣市政府,25.045632,121.531021,特優級,商業營業場所,男廁所,三創生活園區,0
63000,63000010,中正里,A010000860,微風南京3F男,臺北市松山區中正里南京東路三段337號,縣市政府,25.051963,121.547995,特優級,商業營業場所,男廁所,微風廣場,0
63000,63000010,中正里,A010000859,微風南京4F女,臺北市松山區中正里南京東路三段337號,縣市政府,25.051963,121.547995,特優級,商業營業場所,女廁所,微風廣場,0
63000,63000010,中正里,A010000858,微風南京4F男,臺北市松山區中正里南京東路三段337號,縣市政府,25.051963,121.547995,特優級,商業營業場所,男廁所,微風廣場,0
63000,63000050,建國里,A050000974,臺北市立大學中正堂B1女,臺北市中正區建國里愛國西路1號,教育部,25.035558,121.51358,特優級,文化育樂活動場所,女廁所,臺北市政府教育局,0
63000,63000050,建國里,A050000973,臺北市立大學中正堂B1男,臺北市中正區建國里愛國西路1號,教育部,25.035558,121.51358,特優級,文化育樂活動場所,男廁所,臺北市政府教育局,0
63000,63000120,林泉里,A120000764,北投公園2號公園女,臺北市北投區林泉里臺北市北投區中山路26號旁,縣市政府,25.137924,121.510285,特優級,公園,女廁所,臺北市政府工務局公園路燈工程管理處,0
63000,63000120,林泉里,A120000763,北投公園2號公園男,臺北市北投區林泉里臺北市北投區中山路26號旁,縣市政府,25.13780303,121.5098861,特優級,公園,男廁所,臺北市政府工務局公園路燈工程管理處,0
63000,63000110,名山里,A110000999,忠誠公園親子廁所,臺北市士林區名山里中山北路六段與忠誠路,臺北市政府工務局公園路燈工程管理處,25.10326284,121.5259337,特優級,公園,親子廁所,臺北市政府工務局公園路燈工程管理處,0
63000,63000110,名山里,A110000998,忠誠公園女,臺北市士林區名山里中山北路六段與忠誠路,臺北市政府工務局公園路燈工程管理處,25.10330656,121.5259606,特優級,公園,女廁所,臺北市政府工務局公園路燈工程管理處,0
63000,63000120,奇岩里,A120000555,奇岩二號公園無障礙,臺北市北投區奇岩里臺北市北投區三合街一段與磺港路交叉口,縣市政府,25.12553832,121.5033455,特優級,公園,無障礙廁所,臺北市政府工務局公園路燈工程管理處,0
63000,63000070,騰雲里,A070000912,青年公園6號無障礙,臺北市萬華區騰雲里水源路199號,縣市政府,25.022082,121.506975,特優級,公園,無障礙廁所,臺北市政府工務局公園路燈工程管理處,0
